{
"type": "FeatureCollection",
"name": "Johnson",
"crs": { "type": "name", "properties": { "name": "urn:ogc:def:crs:OGC:1.3:CRS84" } },
"features": [
{ "type": "Feature", "properties": { "Number": 9001, "Name": "Cedar Ridge Vineyards", "Dollars": 275598.0, "Gallons": 1686.77, "CoNo": 52, "Coordinates": "POINT (-91.677370 41.832100)", "Extra": 0, "Long": -91.67737, "Lat": 41.8321, "Top": "Single Malt Scotch", "Second": "Straight Bourbon Whiskies", "Third": "American Brandies", "Fourth": "Aged Dark Rum", "Fifth": "American Cordials & Liqueur" }, "geometry": { "type": "Point", "coordinates": [ -91.67737, 41.8321 ] } },
{ "type": "Feature", "properties": { "Number": 5649, "Name": "The Depot Tiffin", "Dollars": 16577.79, "Gallons": 241.38, "CoNo": null, "Coordinates": null, "Extra": 1, "Long": -91.67, "Lat": 41.71, "Top": "American Vodkas", "Second": "Straight Bourbon Whiskies", "Third": "Canadian Whiskies", "Fourth": "Spiced Rum", "Fifth": "Whiskey Liqueur" }, "geometry": { "type": "Point", "coordinates": [ -91.67, 41.71 ] } },
{ "type": "Feature", "properties": { "Number": 5614, "Name": "Liberty View Wine and Spirits", "Dollars": 189301.9, "Gallons": 2288.3, "CoNo": null, "Coordinates": null, "Extra": 1, "Long": -91.62, "Lat": 41.75, "Top": "Straight Bourbon Whiskies", "Second": "American Vodkas", "Third": "Canadian Whiskies", "Fourth": "Blended Whiskies", "Fifth": "Imported Vodkas" }, "geometry": { "type": "Point", "coordinates": [ -91.62, 41.75 ] } },
{ "type": "Feature", "properties": { "Number": 5567, "Name": "Kum & Go #504 \/ Iowa City", "Dollars": 10143.75, "Gallons": 160.9, "CoNo": null, "Coordinates": null, "Extra": 1, "Long": -91.53, "Lat": 41.65, "Top": "American Vodkas", "Second": "Canadian Whiskies", "Third": "Spiced Rum", "Fourth": "Tennessee Whiskies", "Fifth": "Whiskey Liqueur" }, "geometry": { "type": "Point", "coordinates": [ -91.53, 41.65 ] } },
{ "type": "Feature", "properties": { "Number": 5527, "Name": "Liquor Downtown", "Dollars": 368111.31, "Gallons": 6490.53, "CoNo": null, "Coordinates": null, "Extra": 1, "Long": -91.53038, "Lat": 41.65737, "Top": "American Flavored Vodka", "Second": "American Vodkas", "Third": "Imported Flavored Vodka", "Fourth": "Straight Bourbon Whiskies", "Fifth": "Spiced Rum" }, "geometry": { "type": "Point", "coordinates": [ -91.53038, 41.65737 ] } },
{ "type": "Feature", "properties": { "Number": 5514, "Name": "Johncy's Liquor Store", "Dollars": 677535.68, "Gallons": 10578.22, "CoNo": null, "Coordinates": null, "Extra": 1, "Long": -91.61, "Lat": 41.74, "Top": "American Vodkas", "Second": "Straight Bourbon Whiskies", "Third": "Canadian Whiskies", "Fourth": "Imported Vodkas", "Fifth": "Spiced Rum" }, "geometry": { "type": "Point", "coordinates": [ -91.61, 41.74 ] } },
{ "type": "Feature", "properties": { "Number": 5511, "Name": "The Depot North Liberty", "Dollars": 26083.74, "Gallons": 404.93, "CoNo": 52, "Coordinates": "POINT (-91.58 41.73)", "Extra": 1, "Long": -91.58, "Lat": 41.73822, "Top": "American Vodkas", "Second": "Canadian Whiskies", "Third": "Straight Bourbon Whiskies", "Fourth": "Spiced Rum", "Fifth": "Tennessee Whiskies" }, "geometry": { "type": "Point", "coordinates": [ -91.58, 41.73822 ] } },
{ "type": "Feature", "properties": { "Number": 5460, "Name": "Smokin Joe's # 6 Tobacco and Liquor Outlet", "Dollars": 122808.61, "Gallons": 1862.73, "CoNo": 52, "Coordinates": "POINT (-91.599549 41.683630)", "Extra": 0, "Long": -91.599549, "Lat": 41.68363, "Top": "American Vodkas", "Second": "Imported Brandies", "Third": "American Brandies", "Fourth": "Canadian Whiskies", "Fifth": "American Dry Gins" }, "geometry": { "type": "Point", "coordinates": [ -91.599549, 41.68363 ] } },
{ "type": "Feature", "properties": { "Number": 5445, "Name": "Casey's General Store # 2781\/ Iowa City", "Dollars": 13251.38, "Gallons": 222.99, "CoNo": 52, "Coordinates": "POINT (-91.560844 41.641480)", "Extra": 0, "Long": -91.560844, "Lat": 41.64148, "Top": "American Vodkas", "Second": "Canadian Whiskies", "Third": "Canadian Whiskies", "Fourth": "Spiced Rum", "Fifth": "American Dry Gins" }, "geometry": { "type": "Point", "coordinates": [ -91.560844, 41.64148 ] } },
{ "type": "Feature", "properties": { "Number": 5406, "Name": "Casey's General Store # 2918\/ Coralville", "Dollars": 22762.29, "Gallons": 392.15, "CoNo": 52, "Coordinates": "POINT (-91.610515 41.695834)", "Extra": 0, "Long": -91.610515, "Lat": 41.695834, "Top": "American Vodkas", "Second": "Whiskey Liqueur", "Third": "Canadian Whiskies", "Fourth": "Spiced Rum", "Fifth": "Imported Vodkas" }, "geometry": { "type": "Point", "coordinates": [ -91.610515, 41.695834 ] } },
{ "type": "Feature", "properties": { "Number": 5405, "Name": "Kum & Go #524\/ Coralville", "Dollars": 59636.69, "Gallons": 1057.39, "CoNo": 52, "Coordinates": "POINT (-91.607454 41.700517)", "Extra": 0, "Long": -91.607454, "Lat": 41.700517, "Top": "American Vodkas", "Second": "Canadian Whiskies", "Third": "Whiskey Liqueur", "Fourth": "Spiced Rum", "Fifth": "Straight Bourbon Whiskies" }, "geometry": { "type": "Point", "coordinates": [ -91.607454, 41.700517 ] } },
{ "type": "Feature", "properties": { "Number": 5404, "Name": "The Depot Oxford LLC", "Dollars": 30683.0, "Gallons": 493.82, "CoNo": 52, "Coordinates": "POINT (-91.790636 41.724565)", "Extra": 0, "Long": -91.790636, "Lat": 41.724565, "Top": "American Vodkas", "Second": "Canadian Whiskies", "Third": "Straight Bourbon Whiskies", "Fourth": "Spiced Rum", "Fifth": "Tennessee Whiskies" }, "geometry": { "type": "Point", "coordinates": [ -91.790636, 41.724565 ] } },
{ "type": "Feature", "properties": { "Number": 5402, "Name": "City Liquor", "Dollars": 336633.37, "Gallons": 6379.76, "CoNo": 52, "Coordinates": "POINT (-91.530225 41.656031)", "Extra": 0, "Long": -91.530225, "Lat": 41.656031, "Top": "American Flavored Vodka", "Second": "Imported Flavored Vodka", "Third": "American Vodkas", "Fourth": "Straight Bourbon Whiskies", "Fifth": "American Schnapps" }, "geometry": { "type": "Point", "coordinates": [ -91.530225, 41.656031 ] } },
{ "type": "Feature", "properties": { "Number": 5286, "Name": "Sauce", "Dollars": 157345.61, "Gallons": 2376.35, "CoNo": 52, "Coordinates": "POINT (-91.53 41.66)", "Extra": 1, "Long": -91.53, "Lat": 41.66, "Top": "American Vodkas", "Second": "American Flavored Vodka", "Third": "Canadian Whiskies", "Fourth": "Whiskey Liqueur", "Fifth": "Straight Bourbon Whiskies" }, "geometry": { "type": "Point", "coordinates": [ -91.53, 41.66 ] } },
{ "type": "Feature", "properties": { "Number": 5242, "Name": "Kum & Go #502 \/ Iowa City", "Dollars": 20512.11, "Gallons": 325.42, "CoNo": 52, "Coordinates": "POINT (-91.501630 41.649545)", "Extra": 0, "Long": -91.50163, "Lat": 41.649545, "Top": "American Vodkas", "Second": "Canadian Whiskies", "Third": "Imported Vodkas", "Fourth": "Spiced Rum", "Fifth": "American Brandies" }, "geometry": { "type": "Point", "coordinates": [ -91.50163, 41.649545 ] } },
{ "type": "Feature", "properties": { "Number": 5225, "Name": "The Station II \/ North Liberty", "Dollars": 73315.36, "Gallons": 1283.76, "CoNo": 52, "Coordinates": "POINT (-91.608704 41.752665)", "Extra": 0, "Long": -91.608704, "Lat": 41.752665, "Top": "American Vodkas", "Second": "Canadian Whiskies", "Third": "Spiced Rum", "Fourth": "Imported Vodkas", "Fifth": "Tennessee Whiskies" }, "geometry": { "type": "Point", "coordinates": [ -91.608704, 41.752665 ] } },
{ "type": "Feature", "properties": { "Number": 5224, "Name": "Keystone Liquor & Wine \/ Coralville", "Dollars": 319758.13, "Gallons": 4029.15, "CoNo": 52, "Coordinates": "POINT (-91.574095 41.671543)", "Extra": 0, "Long": -91.574095, "Lat": 41.671543, "Top": "American Vodkas", "Second": "Imported Brandies", "Third": "Straight Bourbon Whiskies", "Fourth": "American Flavored Vodka", "Fifth": "American Brandies" }, "geometry": { "type": "Point", "coordinates": [ -91.574095, 41.671543 ] } },
{ "type": "Feature", "properties": { "Number": 5219, "Name": "Kirkwood Liquor & Tobacco", "Dollars": 94120.91, "Gallons": 1599.45, "CoNo": 52, "Coordinates": "POINT (-91.531628 41.649432)", "Extra": 0, "Long": -91.531628, "Lat": 41.649432, "Top": "American Vodkas", "Second": "Canadian Whiskies", "Third": "Imported Brandies", "Fourth": "Whiskey Liqueur", "Fifth": "Spiced Rum" }, "geometry": { "type": "Point", "coordinates": [ -91.531628, 41.649432 ] } },
{ "type": "Feature", "properties": { "Number": 5197, "Name": "Kum & Go #201 \/ Coralville", "Dollars": 65169.49, "Gallons": 1097.71, "CoNo": 52, "Coordinates": "POINT (-91.565766 41.681286)", "Extra": 0, "Long": -91.565766, "Lat": 41.681286, "Top": "American Vodkas", "Second": "Canadian Whiskies", "Third": "Whiskey Liqueur", "Fourth": "Spiced Rum", "Fifth": "Imported Vodkas" }, "geometry": { "type": "Point", "coordinates": [ -91.565766, 41.681286 ] } },
{ "type": "Feature", "properties": { "Number": 5196, "Name": "The Depot Coralville", "Dollars": 47404.99, "Gallons": 704.7, "CoNo": 52, "Coordinates": "POINT (-91.561876 41.701512)", "Extra": 0, "Long": -91.561876, "Lat": 41.701512, "Top": "American Vodkas", "Second": "Canadian Whiskies", "Third": "Straight Bourbon Whiskies", "Fourth": "Tennessee Whiskies", "Fifth": "Tennessee Whiskies" }, "geometry": { "type": "Point", "coordinates": [ -91.561876, 41.701512 ] } },
{ "type": "Feature", "properties": { "Number": 5185, "Name": "Kum & Go #521  \/  Coralville", "Dollars": 34686.99, "Gallons": 591.34, "CoNo": 52, "Coordinates": "POINT (-91.568025 41.669799)", "Extra": 0, "Long": -91.568025, "Lat": 41.669799, "Top": "American Vodkas", "Second": "Canadian Whiskies", "Third": "Straight Bourbon Whiskies", "Fourth": "Spiced Rum", "Fifth": "Whiskey Liqueur" }, "geometry": { "type": "Point", "coordinates": [ -91.568025, 41.669799 ] } },
{ "type": "Feature", "properties": { "Number": 5111, "Name": "Creekside Market", "Dollars": 42164.3, "Gallons": 765.68, "CoNo": 52, "Coordinates": "POINT (-91.493643 41.633009)", "Extra": 0, "Long": -91.493643, "Lat": 41.633009, "Top": "American Vodkas", "Second": "American Flavored Vodka", "Third": "Spiced Rum", "Fourth": "Canadian Whiskies", "Fifth": "American Dry Gins" }, "geometry": { "type": "Point", "coordinates": [ -91.493643, 41.633009 ] } },
{ "type": "Feature", "properties": { "Number": 5096, "Name": "Walgreens #11710 \/ North Liberty", "Dollars": 111329.73, "Gallons": 2064.31, "CoNo": 52, "Coordinates": "POINT (-91.606273 41.752793)", "Extra": 0, "Long": -91.606273, "Lat": 41.752793, "Top": "American Vodkas", "Second": "Canadian Whiskies", "Third": "Imported Vodkas", "Fourth": "Straight Bourbon Whiskies", "Fifth": "Spiced Rum" }, "geometry": { "type": "Point", "coordinates": [ -91.606273, 41.752793 ] } },
{ "type": "Feature", "properties": { "Number": 5060, "Name": "L&M Mighty Shop", "Dollars": 83908.81, "Gallons": 1384.86, "CoNo": 52, "Coordinates": "POINT (-91.528430 41.657818)", "Extra": 0, "Long": -91.52843, "Lat": 41.657818, "Top": "American Vodkas", "Second": "American Flavored Vodka", "Third": "Canadian Whiskies", "Fourth": "Spiced Rum", "Fifth": "Imported Vodkas" }, "geometry": { "type": "Point", "coordinates": [ -91.52843, 41.657818 ] } },
{ "type": "Feature", "properties": { "Number": 5039, "Name": "Casey's General Store #3384 \/ Solon", "Dollars": 39699.73, "Gallons": 788.77, "CoNo": 52, "Coordinates": "POINT (-91.490658 41.797464)", "Extra": 0, "Long": -91.490658, "Lat": 41.797464, "Top": "American Vodkas", "Second": "Canadian Whiskies", "Third": "Spiced Rum", "Fourth": "Whiskey Liqueur", "Fifth": "White Rum" }, "geometry": { "type": "Point", "coordinates": [ -91.490658, 41.797464 ] } },
{ "type": "Feature", "properties": { "Number": 4989, "Name": "Casey's General Store #3322 \/ Iowa City", "Dollars": 15863.86, "Gallons": 262.09, "CoNo": 52, "Coordinates": "POINT (-91.520320 41.641358)", "Extra": 0, "Long": -91.52032, "Lat": 41.641358, "Top": "American Vodkas", "Second": "Spiced Rum", "Third": "Canadian Whiskies", "Fourth": "Canadian Whiskies", "Fifth": "Imported Vodkas" }, "geometry": { "type": "Point", "coordinates": [ -91.52032, 41.641358 ] } },
{ "type": "Feature", "properties": { "Number": 4844, "Name": "Iowa City Fast Break", "Dollars": 37963.6, "Gallons": 644.28, "CoNo": 52, "Coordinates": "POINT (-91.571064 41.632792)", "Extra": 0, "Long": -91.571064, "Lat": 41.632792, "Top": "American Vodkas", "Second": "Canadian Whiskies", "Third": "Straight Bourbon Whiskies", "Fourth": "Whiskey Liqueur", "Fifth": "Imported Schnapps" }, "geometry": { "type": "Point", "coordinates": [ -91.571064, 41.632792 ] } },
{ "type": "Feature", "properties": { "Number": 4837, "Name": "Kum & Go #51 \/ Iowa City", "Dollars": 52685.32, "Gallons": 988.7, "CoNo": 52, "Coordinates": "POINT (-91.530633 41.657837)", "Extra": 0, "Long": -91.530633, "Lat": 41.657837, "Top": "American Vodkas", "Second": "Canadian Whiskies", "Third": "American Flavored Vodka", "Fourth": "Whiskey Liqueur", "Fifth": "Spiced Rum" }, "geometry": { "type": "Point", "coordinates": [ -91.530633, 41.657837 ] } },
{ "type": "Feature", "properties": { "Number": 4836, "Name": "Kum & Go #52 \/ Iowa City", "Dollars": 42501.74, "Gallons": 755.8, "CoNo": 52, "Coordinates": "POINT (-91.537252 41.657904)", "Extra": 0, "Long": -91.537252, "Lat": 41.657904, "Top": "American Vodkas", "Second": "Canadian Whiskies", "Third": "American Flavored Vodka", "Fourth": "Spiced Rum", "Fifth": "Whiskey Liqueur" }, "geometry": { "type": "Point", "coordinates": [ -91.537252, 41.657904 ] } },
{ "type": "Feature", "properties": { "Number": 4787, "Name": "Guppy's On The Go Swisher", "Dollars": 55906.79, "Gallons": 1011.79, "CoNo": 52, "Coordinates": "POINT (-91.664592 41.847894)", "Extra": 0, "Long": -91.664592, "Lat": 41.847894, "Top": "American Vodkas", "Second": "Canadian Whiskies", "Third": "Spiced Rum", "Fourth": "Imported Vodkas", "Fifth": "American Flavored Vodka" }, "geometry": { "type": "Point", "coordinates": [ -91.664592, 41.847894 ] } },
{ "type": "Feature", "properties": { "Number": 4728, "Name": "Walgreens #05077 \/ Iowa City", "Dollars": 31914.69, "Gallons": 498.63, "CoNo": 52, "Coordinates": "POINT (-91.502717 41.649538)", "Extra": 0, "Long": -91.502717, "Lat": 41.649538, "Top": "American Vodkas", "Second": "Canadian Whiskies", "Third": "Straight Bourbon Whiskies", "Fourth": "Spiced Rum", "Fifth": "Imported Vodkas" }, "geometry": { "type": "Point", "coordinates": [ -91.502717, 41.649538 ] } },
{ "type": "Feature", "properties": { "Number": 4713, "Name": "Walgreens #10985 \/ Coralville", "Dollars": 34226.78, "Gallons": 586.0, "CoNo": 52, "Coordinates": "POINT (-91.609460 41.700510)", "Extra": 0, "Long": -91.60946, "Lat": 41.70051, "Top": "American Vodkas", "Second": "Canadian Whiskies", "Third": "Straight Bourbon Whiskies", "Fourth": "Imported Vodkas", "Fifth": "Spiced Rum" }, "geometry": { "type": "Point", "coordinates": [ -91.60946, 41.70051 ] } },
{ "type": "Feature", "properties": { "Number": 4705, "Name": "Walgreens #05977 \/ Coralville", "Dollars": 35307.08, "Gallons": 593.22, "CoNo": 52, "Coordinates": "POINT (-91.566343 41.669266)", "Extra": 0, "Long": -91.566343, "Lat": 41.669266, "Top": "American Vodkas", "Second": "Straight Bourbon Whiskies", "Third": "Canadian Whiskies", "Fourth": "Imported Vodkas", "Fifth": "Spiced Rum" }, "geometry": { "type": "Point", "coordinates": [ -91.566343, 41.669266 ] } },
{ "type": "Feature", "properties": { "Number": 4697, "Name": "Southside Liquor & Tobacco \/ Iowa City", "Dollars": 353109.68, "Gallons": 3713.33, "CoNo": 52, "Coordinates": "POINT (-91.527410 41.643807)", "Extra": 0, "Long": -91.52741, "Lat": 41.643807, "Top": "American Vodkas", "Second": "Imported Brandies", "Third": "American Brandies", "Fourth": "American Dry Gins", "Fifth": "100% Agave Tequila" }, "geometry": { "type": "Point", "coordinates": [ -91.52741, 41.643807 ] } },
{ "type": "Feature", "properties": { "Number": 4677, "Name": "Costco Wholesale #1111 \/ Coralville", "Dollars": 1599583.43, "Gallons": 29769.24, "CoNo": 52, "Coordinates": "POINT (-91.614941 41.698028)", "Extra": 0, "Long": -91.614941, "Lat": 41.698028, "Top": "Straight Bourbon Whiskies", "Second": "American Vodkas", "Third": "Scotch Whiskies", "Fourth": "Canadian Whiskies", "Fifth": "Single Malt Scotch" }, "geometry": { "type": "Point", "coordinates": [ -91.614941, 41.698028 ] } },
{ "type": "Feature", "properties": { "Number": 4506, "Name": "Casey's General Store #2667 \/ Tiffin", "Dollars": 43799.04, "Gallons": 903.14, "CoNo": 52, "Coordinates": "POINT (-91.660199 41.707316)", "Extra": 0, "Long": -91.660199, "Lat": 41.707316, "Top": "American Vodkas", "Second": "Canadian Whiskies", "Third": "Spiced Rum", "Fourth": "Straight Bourbon Whiskies", "Fifth": "Whiskey Liqueur" }, "geometry": { "type": "Point", "coordinates": [ -91.660199, 41.707316 ] } },
{ "type": "Feature", "properties": { "Number": 4500, "Name": "Casey's General Store #2788 \/ North Liberty", "Dollars": 30031.75, "Gallons": 515.26, "CoNo": 52, "Coordinates": "POINT (-91.636952 41.751925)", "Extra": 0, "Long": -91.636952, "Lat": 41.751925, "Top": "American Vodkas", "Second": "Canadian Whiskies", "Third": "Spiced Rum", "Fourth": "Whiskey Liqueur", "Fifth": "Tennessee Whiskies" }, "geometry": { "type": "Point", "coordinates": [ -91.636952, 41.751925 ] } },
{ "type": "Feature", "properties": { "Number": 4457, "Name": "Kum & Go #422 \/ Iowa City", "Dollars": 79811.11, "Gallons": 1491.05, "CoNo": 52, "Coordinates": "POINT (-91.540196 41.650697)", "Extra": 0, "Long": -91.540196, "Lat": 41.650697, "Top": "American Vodkas", "Second": "Canadian Whiskies", "Third": "Spiced Rum", "Fourth": "Straight Bourbon Whiskies", "Fifth": "Straight Bourbon Whiskies" }, "geometry": { "type": "Point", "coordinates": [ -91.540196, 41.650697 ] } },
{ "type": "Feature", "properties": { "Number": 4456, "Name": "Kum & Go #53 \/ Iowa City", "Dollars": 54225.51, "Gallons": 956.29, "CoNo": 52, "Coordinates": "POINT (-91.574075 41.649946)", "Extra": 0, "Long": -91.574075, "Lat": 41.649946, "Top": "American Vodkas", "Second": "Canadian Whiskies", "Third": "Spiced Rum", "Fourth": "Straight Bourbon Whiskies", "Fifth": "American Dry Gins" }, "geometry": { "type": "Point", "coordinates": [ -91.574075, 41.649946 ] } },
{ "type": "Feature", "properties": { "Number": 4427, "Name": "Kum & Go #507 \/ North Liberty", "Dollars": 57990.25, "Gallons": 995.53, "CoNo": 52, "Coordinates": "POINT (-91.636982 41.752948)", "Extra": 0, "Long": -91.636982, "Lat": 41.752948, "Top": "American Vodkas", "Second": "Canadian Whiskies", "Third": "Spiced Rum", "Fourth": "Straight Bourbon Whiskies", "Fifth": "Whiskey Liqueur" }, "geometry": { "type": "Point", "coordinates": [ -91.636982, 41.752948 ] } },
{ "type": "Feature", "properties": { "Number": 4366, "Name": "Kum & Go #137 \/ Tiffin", "Dollars": 59477.86, "Gallons": 1012.51, "CoNo": 52, "Coordinates": "POINT (-91.665600 41.697221)", "Extra": 0, "Long": -91.6656, "Lat": 41.697221, "Top": "American Vodkas", "Second": "Canadian Whiskies", "Third": "Spiced Rum", "Fourth": "Whiskey Liqueur", "Fifth": "Straight Bourbon Whiskies" }, "geometry": { "type": "Point", "coordinates": [ -91.6656, 41.697221 ] } },
{ "type": "Feature", "properties": { "Number": 4161, "Name": "Fareway Stores #950 \/ Iowa City", "Dollars": 124072.72, "Gallons": 2455.84, "CoNo": 52, "Coordinates": "POINT (-91.575636 41.650842)", "Extra": 0, "Long": -91.575636, "Lat": 41.650842, "Top": "American Vodkas", "Second": "Straight Bourbon Whiskies", "Third": "Imported Vodkas", "Fourth": "Blended Whiskies", "Fifth": "Spiced Rum" }, "geometry": { "type": "Point", "coordinates": [ -91.575636, 41.650842 ] } },
{ "type": "Feature", "properties": { "Number": 4160, "Name": "Fareway Stores #034 \/ Iowa City", "Dollars": 98809.47, "Gallons": 2331.17, "CoNo": 52, "Coordinates": "POINT (-91.480430 41.629617)", "Extra": 0, "Long": -91.48043, "Lat": 41.629617, "Top": "American Vodkas", "Second": "Canadian Whiskies", "Third": "Spiced Rum", "Fourth": "Straight Bourbon Whiskies", "Fifth": "Cocktails \/RTD" }, "geometry": { "type": "Point", "coordinates": [ -91.48043, 41.629617 ] } },
{ "type": "Feature", "properties": { "Number": 4157, "Name": "Fareway Stores #993 \/ North Liberty", "Dollars": 188994.48, "Gallons": 3645.87, "CoNo": 52, "Coordinates": "POINT (-91.608385 41.741097)", "Extra": 0, "Long": -91.608385, "Lat": 41.741097, "Top": "American Vodkas", "Second": "Straight Bourbon Whiskies", "Third": "Canadian Whiskies", "Fourth": "Spiced Rum", "Fifth": "Imported Vodkas" }, "geometry": { "type": "Point", "coordinates": [ -91.608385, 41.741097 ] } },
{ "type": "Feature", "properties": { "Number": 4126, "Name": "Sam's Mainstreet Market \/ Solon", "Dollars": 146311.23, "Gallons": 2849.69, "CoNo": 52, "Coordinates": "POINT (-91.494611 41.807199)", "Extra": 0, "Long": -91.494611, "Lat": 41.807199, "Top": "American Vodkas", "Second": "Canadian Whiskies", "Third": "Blended Whiskies", "Fourth": "Spiced Rum", "Fifth": "Straight Bourbon Whiskies" }, "geometry": { "type": "Point", "coordinates": [ -91.494611, 41.807199 ] } },
{ "type": "Feature", "properties": { "Number": 3980, "Name": "Wal-Mart 1721 \/ Iowa City", "Dollars": 606746.15, "Gallons": 11333.84, "CoNo": 52, "Coordinates": "POINT (-91.552125 41.646646)", "Extra": 0, "Long": -91.552125, "Lat": 41.646646, "Top": "American Vodkas", "Second": "American Flavored Vodka", "Third": "Canadian Whiskies", "Fourth": "Cocktails \/RTD", "Fifth": "Straight Bourbon Whiskies" }, "geometry": { "type": "Point", "coordinates": [ -91.552125, 41.646646 ] } },
{ "type": "Feature", "properties": { "Number": 3928, "Name": "Smokin' Joe's #12 Tobacco and Liquor Outlet", "Dollars": 136000.91, "Gallons": 2416.19, "CoNo": 52, "Coordinates": "POINT (-91.607590 41.739524)", "Extra": 0, "Long": -91.60759, "Lat": 41.739524, "Top": "American Vodkas", "Second": "American Brandies", "Third": "Canadian Whiskies", "Fourth": "Imported Brandies", "Fifth": "Imported Vodkas" }, "geometry": { "type": "Point", "coordinates": [ -91.60759, 41.739524 ] } },
{ "type": "Feature", "properties": { "Number": 3896, "Name": "Smokin' Joe's #18 Tobacco and Liquor Outlet", "Dollars": 148753.07, "Gallons": 2433.76, "CoNo": 52, "Coordinates": "POINT (-91.520308 41.641383)", "Extra": 0, "Long": -91.520308, "Lat": 41.641383, "Top": "American Vodkas", "Second": "Imported Brandies", "Third": "American Brandies", "Fourth": "American Dry Gins", "Fifth": "Imported Vodkas" }, "geometry": { "type": "Point", "coordinates": [ -91.520308, 41.641383 ] } },
{ "type": "Feature", "properties": { "Number": 3873, "Name": "Target Store T-1113 \/ Coralville", "Dollars": 150974.4, "Gallons": 2081.13, "CoNo": 52, "Coordinates": "POINT (-91.608399 41.691276)", "Extra": 0, "Long": -91.608399, "Lat": 41.691276, "Top": "American Vodkas", "Second": "Straight Bourbon Whiskies", "Third": "Imported Vodkas", "Fourth": "American Flavored Vodka", "Fifth": "Spiced Rum" }, "geometry": { "type": "Point", "coordinates": [ -91.608399, 41.691276 ] } },
{ "type": "Feature", "properties": { "Number": 3869, "Name": "Bootleggin' Barzini's Fin", "Dollars": 416917.84, "Gallons": 4410.48, "CoNo": 52, "Coordinates": "POINT (-91.565517 41.672672)", "Extra": 0, "Long": -91.565517, "Lat": 41.672672, "Top": "American Vodkas", "Second": "Straight Bourbon Whiskies", "Third": "Imported Vodkas", "Fourth": "Canadian Whiskies", "Fifth": "100% Agave Tequila" }, "geometry": { "type": "Point", "coordinates": [ -91.565517, 41.672672 ] } },
{ "type": "Feature", "properties": { "Number": 3822, "Name": "The Secret Cellar", "Dollars": 59754.93, "Gallons": 837.07, "CoNo": 52, "Coordinates": "POINT (-91.646067 41.847398)", "Extra": 0, "Long": -91.646067, "Lat": 41.847398, "Top": "Canadian Whiskies", "Second": "American Vodkas", "Third": "Straight Bourbon Whiskies", "Fourth": "Imported Vodkas", "Fifth": "American Flavored Vodka" }, "geometry": { "type": "Point", "coordinates": [ -91.646067, 41.847398 ] } },
{ "type": "Feature", "properties": { "Number": 3670, "Name": "Wal-Mart 2827 \/ Coralville", "Dollars": 608274.94, "Gallons": 11419.11, "CoNo": 52, "Coordinates": "POINT (-91.610774 41.695806)", "Extra": 0, "Long": -91.610774, "Lat": 41.695806, "Top": "American Vodkas", "Second": "American Flavored Vodka", "Third": "Canadian Whiskies", "Fourth": "Straight Bourbon Whiskies", "Fifth": "Cocktails \/RTD" }, "geometry": { "type": "Point", "coordinates": [ -91.610774, 41.695806 ] } },
{ "type": "Feature", "properties": { "Number": 3565, "Name": "Hartig Drug Store #10 \/ Iowa City", "Dollars": 175434.16, "Gallons": 3238.81, "CoNo": 52, "Coordinates": "POINT (-91.574025 41.651984)", "Extra": 0, "Long": -91.574025, "Lat": 41.651984, "Top": "American Vodkas", "Second": "Canadian Whiskies", "Third": "Straight Bourbon Whiskies", "Fourth": "Imported Vodkas", "Fifth": "American Dry Gins" }, "geometry": { "type": "Point", "coordinates": [ -91.574025, 41.651984 ] } },
{ "type": "Feature", "properties": { "Number": 2844, "Name": "CVS Pharmacy #8547 \/ Iowa City", "Dollars": 56830.88, "Gallons": 1332.57, "CoNo": 52, "Coordinates": "POINT (-91.500088 41.649547)", "Extra": 0, "Long": -91.500088, "Lat": 41.649547, "Top": "American Vodkas", "Second": "Canadian Whiskies", "Third": "American Dry Gins", "Fourth": "Blended Whiskies", "Fifth": "Spiced Rum" }, "geometry": { "type": "Point", "coordinates": [ -91.500088, 41.649547 ] } },
{ "type": "Feature", "properties": { "Number": 2675, "Name": "Hy-Vee #2 \/ Coralville", "Dollars": 463334.98, "Gallons": 6057.82, "CoNo": null, "Coordinates": null, "Extra": 1, "Long": -91.6, "Lat": 41.72, "Top": "American Vodkas", "Second": "Straight Bourbon Whiskies", "Third": "Canadian Whiskies", "Fourth": "American Flavored Vodka", "Fifth": "Cocktails \/RTD" }, "geometry": { "type": "Point", "coordinates": [ -91.6, 41.72 ] } },
{ "type": "Feature", "properties": { "Number": 2670, "Name": "Hy-Vee Food Store \/ Coralville", "Dollars": 2870246.03, "Gallons": 43517.82, "CoNo": 52, "Coordinates": "POINT (-91.591868 41.682337)", "Extra": 0, "Long": -91.591868, "Lat": 41.682337, "Top": "American Vodkas", "Second": "Straight Bourbon Whiskies", "Third": "Canadian Whiskies", "Fourth": "American Flavored Vodka", "Fifth": "100% Agave Tequila" }, "geometry": { "type": "Point", "coordinates": [ -91.591868, 41.682337 ] } },
{ "type": "Feature", "properties": { "Number": 2622, "Name": "Hy-Vee Food Store \/ Iowa City", "Dollars": 907877.61, "Gallons": 14587.72, "CoNo": 52, "Coordinates": "POINT (-91.518868 41.676095)", "Extra": 0, "Long": -91.518868, "Lat": 41.676095, "Top": "American Vodkas", "Second": "Straight Bourbon Whiskies", "Third": "Canadian Whiskies", "Fourth": "American Flavored Vodka", "Fifth": "100% Agave Tequila" }, "geometry": { "type": "Point", "coordinates": [ -91.518868, 41.676095 ] } },
{ "type": "Feature", "properties": { "Number": 2545, "Name": "Hy-Vee Drugstore \/ Iowa City", "Dollars": 602617.23, "Gallons": 9120.78, "CoNo": 52, "Coordinates": "POINT (-91.502069 41.665901)", "Extra": 0, "Long": -91.502069, "Lat": 41.665901, "Top": "American Vodkas", "Second": "Straight Bourbon Whiskies", "Third": "100% Agave Tequila", "Fourth": "Canadian Whiskies", "Fifth": "Blended Whiskies" }, "geometry": { "type": "Point", "coordinates": [ -91.502069, 41.665901 ] } },
{ "type": "Feature", "properties": { "Number": 2513, "Name": "Hy-Vee Food Store #2 \/ Iowa City", "Dollars": 719455.54, "Gallons": 12195.55, "CoNo": 52, "Coordinates": "POINT (-91.501984 41.650955)", "Extra": 0, "Long": -91.501984, "Lat": 41.650955, "Top": "American Vodkas", "Second": "Straight Bourbon Whiskies", "Third": "American Flavored Vodka", "Fourth": "Canadian Whiskies", "Fifth": "American Dry Gins" }, "geometry": { "type": "Point", "coordinates": [ -91.501984, 41.650955 ] } },
{ "type": "Feature", "properties": { "Number": 2512, "Name": "Hy-Vee Wine and Spirits \/ Iowa City", "Dollars": 4585022.07, "Gallons": 79801.34, "CoNo": 52, "Coordinates": "POINT (-91.530463 41.642764)", "Extra": 0, "Long": -91.530463, "Lat": 41.642764, "Top": "American Vodkas", "Second": "Straight Bourbon Whiskies", "Third": "American Flavored Vodka", "Fourth": "100% Agave Tequila", "Fifth": "Imported Flavored Vodka" }, "geometry": { "type": "Point", "coordinates": [ -91.530463, 41.642764 ] } },
{ "type": "Feature", "properties": { "Number": 2285, "Name": "John's Grocery", "Dollars": 1161838.49, "Gallons": 14241.97, "CoNo": 52, "Coordinates": "POINT (-91.529854 41.663541)", "Extra": 0, "Long": -91.529854, "Lat": 41.663541, "Top": "Straight Bourbon Whiskies", "Second": "American Vodkas", "Third": "Imported Cordials & Liqueurs", "Fourth": "Imported Dry Gins", "Fifth": "American Flavored Vodka" }, "geometry": { "type": "Point", "coordinates": [ -91.529854, 41.663541 ] } }
]
}
