{
"type": "FeatureCollection",
"name": "schoolPoints",
"crs": { "type": "name", "properties": { "name": "urn:ogc:def:crs:OGC:1.3:CRS84" } },
"features": [
{ "type": "Feature", "properties": { "OBJECTID": 1, "ORGID": "PS021", "ORGANIZATI": "Barstow Memorial School", "ADDRESS": "223 Chittenden Road", "CITY": "Chittenden", "STATE": "VT", "ZIP": "05737", "Lon": -72.95213951, "Lat": 43.70094718, "GRTYPE": "Elementary", "Sector": "Public", "schData_avgconc": null, "schData_geom": null }, "geometry": { "type": "Point", "coordinates": [ -72.952138709857621, 43.700945551348077 ] } },
{ "type": "Feature", "properties": { "OBJECTID": 2, "ORGID": "PS022", "ORGANIZATI": "Barton Graded School", "ADDRESS": "137 Church Street", "CITY": "Barton", "STATE": "VT", "ZIP": "05822", "Lon": -72.17973713000001, "Lat": 44.74882244, "GRTYPE": "Elementary", "Sector": "Public", "schData_avgconc": "3.5818181818181818", "schData_geom": "01010000205991010050B083C961082041C06BCFB041810E41" }, "geometry": { "type": "Point", "coordinates": [ -72.179737336544648, 44.74882091242015 ] } },
{ "type": "Feature", "properties": { "OBJECTID": 3, "ORGID": "PS023", "ORGANIZATI": "Beeman Elementary School", "ADDRESS": "50 North Street", "CITY": "New Haven", "STATE": "VT", "ZIP": "05472", "Lon": -73.15320985, "Lat": 44.12541916, "GRTYPE": "Elementary", "Sector": "Public", "schData_avgconc": null, "schData_geom": null }, "geometry": { "type": "Point", "coordinates": [ -73.153208819241257, 44.125416940919578 ] } },
{ "type": "Feature", "properties": { "OBJECTID": 4, "ORGID": "PS024", "ORGANIZATI": "Bellows Falls Middle School", "ADDRESS": "15 School Street", "CITY": "Bellows Falls", "STATE": "VT", "ZIP": "05101", "Lon": -72.44629248, "Lat": 43.13335728, "GRTYPE": "Middle", "Sector": "Public", "schData_avgconc": "57.0000000000000000", "schData_geom": "0101000020599101003084AAE5C6C81E418039A651602DF140" }, "geometry": { "type": "Point", "coordinates": [ -72.44629254020991, 43.133355860903819 ] } },
{ "type": "Feature", "properties": { "OBJECTID": 5, "ORGID": "PS025", "ORGANIZATI": "Bellows Falls UHS #27", "ADDRESS": "406 High School Road", "CITY": "Bellows Falls", "STATE": "VT", "ZIP": "05101", "Lon": -72.44294739, "Lat": 43.11868286, "GRTYPE": "Secondary", "Sector": "Public", "schData_avgconc": null, "schData_geom": null }, "geometry": { "type": "Point", "coordinates": [ -72.442947431583562, 43.11868144982256 ] } },
{ "type": "Feature", "properties": { "OBJECTID": 6, "ORGID": "PS405", "ORGANIZATI": "Bellows Free Academy (Fairfax)", "ADDRESS": "75 Hunt Street", "CITY": "Fairfax", "STATE": "VT", "ZIP": "05454", "Lon": -73.01334789000001, "Lat": 44.66354812, "GRTYPE": "Secondary", "Sector": "Public", "schData_avgconc": null, "schData_geom": null }, "geometry": { "type": "Point", "coordinates": [ -73.013347426500232, 44.663546027809147 ] } },
{ "type": "Feature", "properties": { "OBJECTID": 7, "ORGID": "PS406", "ORGANIZATI": "Bellows Free Academy (St Albans)", "ADDRESS": "71 South Main Street", "CITY": "St Albans", "STATE": "VT", "ZIP": "05478-2297", "Lon": -73.08332972, "Lat": 44.8081444, "GRTYPE": "Secondary", "Sector": "Public", "schData_avgconc": null, "schData_geom": null }, "geometry": { "type": "Point", "coordinates": [ -73.083329895513998, 44.808141459534482 ] } },
{ "type": "Feature", "properties": { "OBJECTID": 8, "ORGID": "PS029", "ORGANIZATI": "Bennington Elementary School", "ADDRESS": "128 Park Street", "CITY": "Bennington", "STATE": "VT", "ZIP": "05201", "Lon": -73.19351396, "Lat": 42.88073047, "GRTYPE": "Elementary", "Sector": "Public", "schData_avgconc": null, "schData_geom": null }, "geometry": { "type": "Point", "coordinates": [ -73.193513899506684, 42.880730130764626 ] } },
{ "type": "Feature", "properties": { "OBJECTID": 9, "ORGID": "PS031", "ORGANIZATI": "Benson Village School", "ADDRESS": "32 School Street", "CITY": "Benson", "STATE": "VT", "ZIP": "05731", "Lon": -73.30216408, "Lat": 43.70702581, "GRTYPE": "Elementary", "Sector": "Public", "schData_avgconc": null, "schData_geom": null }, "geometry": { "type": "Point", "coordinates": [ -73.302162916239993, 43.707024146147262 ] } },
{ "type": "Feature", "properties": { "OBJECTID": 10, "ORGID": "PS032", "ORGANIZATI": "Berkshire Elementary School", "ADDRESS": "4850 Water Tower Road", "CITY": "Richford", "STATE": "VT", "ZIP": "05476", "Lon": -72.76634216, "Lat": 44.97245407, "GRTYPE": "Elementary", "Sector": "Public", "schData_avgconc": "27.0900000000000000", "schData_geom": "01010000205991010040797DD0393C1D4180C2F7A2AFC41041" }, "geometry": { "type": "Point", "coordinates": [ -72.766343013002228, 44.97245169614871 ] } },
{ "type": "Feature", "properties": { "OBJECTID": 11, "ORGID": "PS033", "ORGANIZATI": "Berlin Elementary School", "ADDRESS": "372 Paine Turnpike No - Berlin", "CITY": "Berlin", "STATE": "VT", "ZIP": "05602", "Lon": -72.57165386, "Lat": 44.21448573, "GRTYPE": "Elementary", "Sector": "Public", "schData_avgconc": null, "schData_geom": null }, "geometry": { "type": "Point", "coordinates": [ -72.571653362369204, 44.214484204873486 ] } },
{ "type": "Feature", "properties": { "OBJECTID": 12, "ORGID": "PS034", "ORGANIZATI": "Bethel Elementary School", "ADDRESS": "273 Pleasant St Rr#1 Box 1003", "CITY": "Bethel", "STATE": "VT", "ZIP": "05032", "Lon": -72.64349962, "Lat": 43.83323192, "GRTYPE": "Elementary", "Sector": "Public", "schData_avgconc": null, "schData_geom": null }, "geometry": { "type": "Point", "coordinates": [ -72.643498738554996, 43.83323025131682 ] } },
{ "type": "Feature", "properties": { "OBJECTID": 13, "ORGID": "PS076", "ORGANIZATI": "Bingham Memorial School", "ADDRESS": "112 School Road", "CITY": "Cornwall", "STATE": "VT", "ZIP": "05753", "Lon": -73.20639801, "Lat": 43.96390152, "GRTYPE": "Elementary", "Sector": "Public", "schData_avgconc": null, "schData_geom": null }, "geometry": { "type": "Point", "coordinates": [ -73.206396588579793, 43.963899206637599 ] } },
{ "type": "Feature", "properties": { "OBJECTID": 14, "ORGID": "PS035", "ORGANIZATI": "Black River US #39", "ADDRESS": "43 Main Street", "CITY": "Ludlow", "STATE": "VT", "ZIP": "05149", "Lon": -72.68858781, "Lat": 43.39758176, "GRTYPE": "Secondary", "Sector": "Public", "schData_avgconc": null, "schData_geom": null }, "geometry": { "type": "Point", "coordinates": [ -72.688587575930356, 43.397580383737356 ] } },
{ "type": "Feature", "properties": { "OBJECTID": 15, "ORGID": "PS036", "ORGANIZATI": "Blue Mountain US #21", "ADDRESS": "2420 Route 302", "CITY": "Wells River", "STATE": "VT", "ZIP": "05081", "Lon": -72.0832345, "Lat": 44.15542285, "GRTYPE": "K-12", "Sector": "Public", "schData_avgconc": null, "schData_geom": null }, "geometry": { "type": "Point", "coordinates": [ -72.083234093106739, 44.155420737627665 ] } },
{ "type": "Feature", "properties": { "OBJECTID": 16, "ORGID": "PS037", "ORGANIZATI": "Bradford Elementary School", "ADDRESS": "761 Fairground Rd", "CITY": "Bradford", "STATE": "VT", "ZIP": "05033", "Lon": -72.12219238, "Lat": 44.0027771, "GRTYPE": "Elementary", "Sector": "Public", "schData_avgconc": null, "schData_geom": null }, "geometry": { "type": "Point", "coordinates": [ -72.122191134256241, 44.002774769968639 ] } },
{ "type": "Feature", "properties": { "OBJECTID": 17, "ORGID": "PS038", "ORGANIZATI": "Braintree School", "ADDRESS": "66 Bent Hill Road", "CITY": "Braintree", "STATE": "VT", "ZIP": "05060", "Lon": -72.72237787, "Lat": 43.95573761, "GRTYPE": "Elementary", "Sector": "Public", "schData_avgconc": null, "schData_geom": null }, "geometry": { "type": "Point", "coordinates": [ -72.722376862897505, 43.955736059107103 ] } },
{ "type": "Feature", "properties": { "OBJECTID": 18, "ORGID": "PS040", "ORGANIZATI": "Brattleboro UHS #6", "ADDRESS": "131 Fairground Road", "CITY": "Brattleboro", "STATE": "VT", "ZIP": "05301", "Lon": -72.56126709, "Lat": 42.83673855, "GRTYPE": "Secondary", "Sector": "Public", "schData_avgconc": null, "schData_geom": null }, "geometry": { "type": "Point", "coordinates": [ -72.561267002197653, 42.836738290165307 ] } },
{ "type": "Feature", "properties": { "OBJECTID": 19, "ORGID": "PS041", "ORGANIZATI": "Brewster Pierce Elementary School", "ADDRESS": "120 School Street", "CITY": "Huntington", "STATE": "VT", "ZIP": "05462-9712", "Lon": -72.96361472, "Lat": 44.29578277, "GRTYPE": "Elementary", "Sector": "Public", "schData_avgconc": null, "schData_geom": null }, "geometry": { "type": "Point", "coordinates": [ -72.963614069763182, 44.295780946443259 ] } },
{ "type": "Feature", "properties": { "OBJECTID": 20, "ORGID": "PS042", "ORGANIZATI": "Bridgewater Village School", "ADDRESS": "7335 Route 4 West", "CITY": "Bridgewater", "STATE": "VT", "ZIP": "05034", "Lon": -72.62430474, "Lat": 43.58817107, "GRTYPE": "Elementary", "Sector": "Public", "schData_avgconc": null, "schData_geom": null }, "geometry": { "type": "Point", "coordinates": [ -72.624304055383604, 43.58816948826783 ] } },
{ "type": "Feature", "properties": { "OBJECTID": 21, "ORGID": "PS043", "ORGANIZATI": "Bridport Central School", "ADDRESS": "3442 Vt Rt 22A", "CITY": "Bridport", "STATE": "VT", "ZIP": "05734", "Lon": -73.31579743, "Lat": 43.98100966, "GRTYPE": "Elementary", "Sector": "Public", "schData_avgconc": "6.2000000000000000", "schData_geom": "01010000205991010020958187D5851A41C08DA387B01F0441" }, "geometry": { "type": "Point", "coordinates": [ -73.315795950852191, 43.981007212638147 ] } },
{ "type": "Feature", "properties": { "OBJECTID": 22, "ORGID": "PS044", "ORGANIZATI": "Brighton Elementary School", "ADDRESS": "825 Railroad St", "CITY": "Island Pond", "STATE": "VT", "ZIP": "05846", "Lon": -71.89398785, "Lat": 44.82149697, "GRTYPE": "Elementary", "Sector": "Public", "schData_avgconc": "47.1600000000000000", "schData_geom": "01010000205991010080544B21B1B82041C0B025BCA6810F41" }, "geometry": { "type": "Point", "coordinates": [ -71.89398863606786, 44.821495265012246 ] } },
{ "type": "Feature", "properties": { "OBJECTID": 23, "ORGID": "PS045", "ORGANIZATI": "Bristol Elementary School", "ADDRESS": "57 Mountain St", "CITY": "Bristol", "STATE": "VT", "ZIP": "05443", "Lon": -73.07709527, "Lat": 44.13819015, "GRTYPE": "Elementary", "Sector": "Public", "schData_avgconc": null, "schData_geom": null }, "geometry": { "type": "Point", "coordinates": [ -73.077094183567311, 44.138188127124771 ] } },
{ "type": "Feature", "properties": { "OBJECTID": 24, "ORGID": "PS047", "ORGANIZATI": "Brookfield Elementary School", "ADDRESS": "1728 Ridge Rd", "CITY": "Brookfield", "STATE": "VT", "ZIP": "05036", "Lon": -72.60668329000001, "Lat": 44.01639526, "GRTYPE": "Elementary", "Sector": "Public", "schData_avgconc": null, "schData_geom": null }, "geometry": { "type": "Point", "coordinates": [ -72.606682309897238, 44.016393611838389 ] } },
{ "type": "Feature", "properties": { "OBJECTID": 25, "ORGID": "PS049", "ORGANIZATI": "Brownington Central School", "ADDRESS": "103 Chase Road", "CITY": "Brownington", "STATE": "VT", "ZIP": "05860-9765", "Lon": -72.13770493, "Lat": 44.81982105, "GRTYPE": "Elementary", "Sector": "Public", "schData_avgconc": "9.7000000000000000", "schData_geom": "0101000020599101004033C65E1C222041808D6B533E780F41" }, "geometry": { "type": "Point", "coordinates": [ -72.137705228851388, 44.819819374779762 ] } },
{ "type": "Feature", "properties": { "OBJECTID": 26, "ORGID": "PS050", "ORGANIZATI": "Browns River Middle School", "ADDRESS": "20 River Road", "CITY": "Jericho", "STATE": "VT", "ZIP": "05465", "Lon": -72.94438583, "Lat": 44.51922688, "GRTYPE": "Middle", "Sector": "Public", "schData_avgconc": null, "schData_geom": null }, "geometry": { "type": "Point", "coordinates": [ -72.94438502988433, 44.51922527863757 ] } },
{ "type": "Feature", "properties": { "OBJECTID": 27, "ORGID": "PS051", "ORGANIZATI": "Burke Town School", "ADDRESS": "3293 Burke Hollow Road", "CITY": "West Burke", "STATE": "VT", "ZIP": "05871-8913", "Lon": -71.95991666, "Lat": 44.6245521, "GRTYPE": "Elementary", "Sector": "Public", "schData_avgconc": null, "schData_geom": null }, "geometry": { "type": "Point", "coordinates": [ -71.959917789405964, 44.624550049025743 ] } },
{ "type": "Feature", "properties": { "OBJECTID": 28, "ORGID": "PS052", "ORGANIZATI": "Burlington Senior High School", "ADDRESS": "52 Institute Road", "CITY": "Burlington", "STATE": "VT", "ZIP": "05401", "Lon": -73.2352609, "Lat": 44.49632262, "GRTYPE": "Secondary", "Sector": "Public", "schData_avgconc": null, "schData_geom": null }, "geometry": { "type": "Point", "coordinates": [ -73.235261368689549, 44.496320167662788 ] } },
{ "type": "Feature", "properties": { "OBJECTID": 29, "ORGID": "PA002", "ORGANIZATI": "Burr And Burton Academy", "ADDRESS": "57 Seminary Avenue", "CITY": "Manchester", "STATE": "VT", "ZIP": "05254", "Lon": -73.07736959, "Lat": 43.16414566, "GRTYPE": "Charter", "Sector": "Public", "schData_avgconc": null, "schData_geom": null }, "geometry": { "type": "Point", "coordinates": [ -73.077369691388682, 43.164144947495636 ] } },
{ "type": "Feature", "properties": { "OBJECTID": 30, "ORGID": "PS080", "ORGANIZATI": "C P Smith School", "ADDRESS": "332 Ethan Allen Parkway", "CITY": "Burlington", "STATE": "VT", "ZIP": "05401", "Lon": -73.2430351, "Lat": 44.51310192, "GRTYPE": "Elementary", "Sector": "Public", "schData_avgconc": null, "schData_geom": null }, "geometry": { "type": "Point", "coordinates": [ -73.243035647525943, 44.513099303847348 ] } },
{ "type": "Feature", "properties": { "OBJECTID": 31, "ORGID": "PS055", "ORGANIZATI": "Cabot School", "ADDRESS": "25 Common Road", "CITY": "Cabot", "STATE": "VT", "ZIP": "05647", "Lon": -72.30952454, "Lat": 44.40345383, "GRTYPE": "K-12", "Sector": "Public", "schData_avgconc": "38.0360655737704918", "schData_geom": "0101000020599101002006727693711F4140534419F6D00941" }, "geometry": { "type": "Point", "coordinates": [ -72.309524529505481, 44.403452081392437 ] } },
{ "type": "Feature", "properties": { "OBJECTID": 32, "ORGID": "PS056", "ORGANIZATI": "Calais Elementary School", "ADDRESS": "321 Lightening Ridge Road", "CITY": "Plainfield", "STATE": "VT", "ZIP": "05667", "Lon": -72.45183022000001, "Lat": 44.31965188, "GRTYPE": "Elementary", "Sector": "Public", "schData_avgconc": null, "schData_geom": null }, "geometry": { "type": "Point", "coordinates": [ -72.451830010286514, 44.319650362054624 ] } },
{ "type": "Feature", "properties": { "OBJECTID": 33, "ORGID": "PS057", "ORGANIZATI": "Cambridge Elementary School", "ADDRESS": "186 School St", "CITY": "Jeffersonville", "STATE": "VT", "ZIP": "05464", "Lon": -72.82674204, "Lat": 44.64452412, "GRTYPE": "Elementary", "Sector": "Public", "schData_avgconc": null, "schData_geom": null }, "geometry": { "type": "Point", "coordinates": [ -72.826741340987411, 44.644522419070277 ] } },
{ "type": "Feature", "properties": { "OBJECTID": 34, "ORGID": "PS058", "ORGANIZATI": "Camels Hump Middle School", "ADDRESS": "173 School Street", "CITY": "Richmond", "STATE": "VT", "ZIP": "05477", "Lon": -72.99423653, "Lat": 44.41354069, "GRTYPE": "Middle", "Sector": "Public", "schData_avgconc": null, "schData_geom": null }, "geometry": { "type": "Point", "coordinates": [ -72.994235836388185, 44.413538972677287 ] } },
{ "type": "Feature", "properties": { "OBJECTID": 35, "ORGID": "PS059", "ORGANIZATI": "Canaan Schools", "ADDRESS": "99 School Street", "CITY": "Canaan", "STATE": "VT", "ZIP": "05903", "Lon": -71.5377002, "Lat": 44.99538238, "GRTYPE": "K-12", "Sector": "Public", "schData_avgconc": null, "schData_geom": null }, "geometry": { "type": "Point", "coordinates": [ -71.537701242589605, 44.995380905312295 ] } },
{ "type": "Feature", "properties": { "OBJECTID": 36, "ORGID": "PS063", "ORGANIZATI": "Cavendish Town Elem School", "ADDRESS": "573 Main St", "CITY": "Proctorsville", "STATE": "VT", "ZIP": "05153", "Lon": -72.6371994, "Lat": 43.38394928, "GRTYPE": "Elementary", "Sector": "Public", "schData_avgconc": null, "schData_geom": null }, "geometry": { "type": "Point", "coordinates": [ -72.637199200300643, 43.383947866015141 ] } },
{ "type": "Feature", "properties": { "OBJECTID": 37, "ORGID": "PS249", "ORGANIZATI": "Central Elementary School", "ADDRESS": "50 School Street Extension", "CITY": "Bellows Falls", "STATE": "VT", "ZIP": "05101", "Lon": -72.45059165000001, "Lat": 43.13227203, "GRTYPE": "Elementary", "Sector": "Public", "schData_avgconc": null, "schData_geom": null }, "geometry": { "type": "Point", "coordinates": [ -72.450591744362782, 43.132270615626794 ] } },
{ "type": "Feature", "properties": { "OBJECTID": 38, "ORGID": "PS064", "ORGANIZATI": "Chamberlin School", "ADDRESS": "262 White Street", "CITY": "So Burlington", "STATE": "VT", "ZIP": "05403-5940", "Lon": -73.16537089000001, "Lat": 44.47129654, "GRTYPE": "Elementary", "Sector": "Public", "schData_avgconc": null, "schData_geom": null }, "geometry": { "type": "Point", "coordinates": [ -73.165370944336146, 44.471294336806373 ] } },
{ "type": "Feature", "properties": { "OBJECTID": 39, "ORGID": "PS065", "ORGANIZATI": "Champlain Elementary School", "ADDRESS": "800 Pine Street", "CITY": "Burlington", "STATE": "VT", "ZIP": "05401", "Lon": -73.21322112, "Lat": 44.45706494, "GRTYPE": "Elementary", "Sector": "Public", "schData_avgconc": "18.4106382978723404", "schData_geom": "010100002059910100903665E4980D1B4140C4E0254D920A41" }, "geometry": { "type": "Point", "coordinates": [ -73.213221350035838, 44.457062572421542 ] } },
{ "type": "Feature", "properties": { "OBJECTID": 40, "ORGID": "PS066", "ORGANIZATI": "Champlain Valley UHS #15", "ADDRESS": "369 Cvu Road", "CITY": "Hinesburg", "STATE": "VT", "ZIP": "05461", "Lon": -73.1099409, "Lat": 44.34469516, "GRTYPE": "Secondary", "Sector": "Public", "schData_avgconc": null, "schData_geom": null }, "geometry": { "type": "Point", "coordinates": [ -73.109940533204949, 44.344693079453123 ] } },
{ "type": "Feature", "properties": { "OBJECTID": 41, "ORGID": "PS067", "ORGANIZATI": "Charleston Elem School", "ADDRESS": "255 Center School Road", "CITY": "West Charleston", "STATE": "VT", "ZIP": "05872", "Lon": -72.01956079, "Lat": 44.84304635, "GRTYPE": "Elementary", "Sector": "Public", "schData_avgconc": "24.9833333333333333", "schData_geom": "010100002059910100607E6512FE6A2041C04BA50D69CA0F41" }, "geometry": { "type": "Point", "coordinates": [ -72.019561280257335, 44.843044569525496 ] } },
{ "type": "Feature", "properties": { "OBJECTID": 42, "ORGID": "PS068", "ORGANIZATI": "Charlotte Central School", "ADDRESS": "408 Hinesburg Road", "CITY": "Charlotte", "STATE": "VT", "ZIP": "05445", "Lon": -73.22626046000001, "Lat": 44.31518793, "GRTYPE": "Elementary", "Sector": "Public", "schData_avgconc": "37.9166666666666667", "schData_geom": "010100002059910100001632CB32FB1A4180F966B9EFA50841" }, "geometry": { "type": "Point", "coordinates": [ -73.226260283409744, 44.315185557115214 ] } },
{ "type": "Feature", "properties": { "OBJECTID": 43, "ORGID": "PS069", "ORGANIZATI": "Chelsea Elem High School", "ADDRESS": "6 School St", "CITY": "Chelsea", "STATE": "VT", "ZIP": "05038-9746", "Lon": -72.4465037, "Lat": 43.98724174, "GRTYPE": "K-12", "Sector": "Public", "schData_avgconc": null, "schData_geom": null }, "geometry": { "type": "Point", "coordinates": [ -72.446502505267304, 43.987239814900221 ] } },
{ "type": "Feature", "properties": { "OBJECTID": 44, "ORGID": "PS070", "ORGANIZATI": "Chester Andover US #29", "ADDRESS": "72 Main Street", "CITY": "Chester", "STATE": "VT", "ZIP": "05143", "Lon": -72.59548566, "Lat": 43.26470962, "GRTYPE": "Elementary", "Sector": "Public", "schData_avgconc": null, "schData_geom": null }, "geometry": { "type": "Point", "coordinates": [ -72.595485885281107, 43.264708250730109 ] } },
{ "type": "Feature", "properties": { "OBJECTID": 45, "ORGID": "PS071", "ORGANIZATI": "Clarendon Elementary School", "ADDRESS": "84 Grange Hall Rd", "CITY": "North Clarendon", "STATE": "VT", "ZIP": "05759", "Lon": -72.96786504000001, "Lat": 43.56332558, "GRTYPE": "Elementary", "Sector": "Public", "schData_avgconc": "64.3846153846153846", "schData_geom": "010100002059910100E0D4D21CE6351C4100E1EFB768DDFC40" }, "geometry": { "type": "Point", "coordinates": [ -72.967864569859017, 43.563324163776741 ] } },
{ "type": "Feature", "properties": { "OBJECTID": 46, "ORGID": "PS072", "ORGANIZATI": "Colchester High School", "ADDRESS": "131 Laker Lane", "CITY": "Colchester", "STATE": "VT", "ZIP": "05446", "Lon": -73.21345943, "Lat": 44.53947928, "GRTYPE": "Secondary", "Sector": "Public", "schData_avgconc": null, "schData_geom": null }, "geometry": { "type": "Point", "coordinates": [ -73.213459877480034, 44.539476522643149 ] } },
{ "type": "Feature", "properties": { "OBJECTID": 47, "ORGID": "PS073", "ORGANIZATI": "Colchester Middle School", "ADDRESS": "425 Blakely Road", "CITY": "Colchester", "STATE": "VT", "ZIP": "05446", "Lon": -73.20973208, "Lat": 44.54028221, "GRTYPE": "Middle", "Sector": "Public", "schData_avgconc": null, "schData_geom": null }, "geometry": { "type": "Point", "coordinates": [ -73.209732506533186, 44.540279466463964 ] } },
{ "type": "Feature", "properties": { "OBJECTID": 48, "ORGID": "PS074", "ORGANIZATI": "Concord Graded/High School", "ADDRESS": "173 School Street", "CITY": "Concord", "STATE": "VT", "ZIP": "05824", "Lon": -71.89055429, "Lat": 44.42662722, "GRTYPE": "K-12", "Sector": "Public", "schData_avgconc": null, "schData_geom": null }, "geometry": { "type": "Point", "coordinates": [ -71.890554886070362, 44.426625092419222 ] } },
{ "type": "Feature", "properties": { "OBJECTID": 49, "ORGID": "PS077", "ORGANIZATI": "Coventry Village School", "ADDRESS": "348 Route 5", "CITY": "Coventry", "STATE": "VT", "ZIP": "05825", "Lon": -72.26488017, "Lat": 44.86253526, "GRTYPE": "Elementary", "Sector": "Public", "schData_avgconc": null, "schData_geom": null }, "geometry": { "type": "Point", "coordinates": [ -72.264880279893887, 44.862533584065957 ] } },
{ "type": "Feature", "properties": { "OBJECTID": 50, "ORGID": "PS078", "ORGANIZATI": "Craftsbury Schools", "ADDRESS": "1422 North Craftsbury Road", "CITY": "Craftsbury Comm", "STATE": "VT", "ZIP": "05827", "Lon": -72.38198438000001, "Lat": 44.65419356, "GRTYPE": "K-12", "Sector": "Public", "schData_avgconc": null, "schData_geom": null }, "geometry": { "type": "Point", "coordinates": [ -72.381984279995777, 44.654192018616499 ] } },
{ "type": "Feature", "properties": { "OBJECTID": 51, "ORGID": "PS391", "ORGANIZATI": "Crossett Brook Middle US #45", "ADDRESS": "5672 Vt Route 100", "CITY": "Duxbury", "STATE": "VT", "ZIP": "05676", "Lon": -72.75257224000001, "Lat": 44.32131342, "GRTYPE": "Middle", "Sector": "Public", "schData_avgconc": null, "schData_geom": null }, "geometry": { "type": "Point", "coordinates": [ -72.752571358622305, 44.321311853670522 ] } },
{ "type": "Feature", "properties": { "OBJECTID": 52, "ORGID": "PS079", "ORGANIZATI": "Currier Memorial US #23", "ADDRESS": "234 North Main St", "CITY": "Danby", "STATE": "VT", "ZIP": "05739-0243", "Lon": -72.99513347, "Lat": 43.35004271, "GRTYPE": "Elementary", "Sector": "Public", "schData_avgconc": null, "schData_geom": null }, "geometry": { "type": "Point", "coordinates": [ -72.995133385448014, 43.350041679289333 ] } },
{ "type": "Feature", "properties": { "OBJECTID": 53, "ORGID": "PS082", "ORGANIZATI": "Danville School", "ADDRESS": "148 Peacham Road", "CITY": "Danville", "STATE": "VT", "ZIP": "05828", "Lon": -72.14350128, "Lat": 44.41082764, "GRTYPE": "K-12", "Sector": "Public", "schData_avgconc": "10.9627906976744186", "schData_geom": "01010000205991010048A397B614202041400D8A43F2EB0941" }, "geometry": { "type": "Point", "coordinates": [ -72.143501744975623, 44.410825562664016 ] } },
{ "type": "Feature", "properties": { "OBJECTID": 54, "ORGID": "PS083", "ORGANIZATI": "Deerfield Valley Elem School", "ADDRESS": "360 Rt 100 North", "CITY": "Wilmington", "STATE": "VT", "ZIP": "05363-9634", "Lon": -72.86215474, "Lat": 42.88934369, "GRTYPE": "Elementary", "Sector": "Public", "schData_avgconc": null, "schData_geom": null }, "geometry": { "type": "Point", "coordinates": [ -72.862155102304143, 42.889343165847734 ] } },
{ "type": "Feature", "properties": { "OBJECTID": 55, "ORGID": "PS084", "ORGANIZATI": "Derby Elementary School", "ADDRESS": "907 Elm Street", "CITY": "Derby Line", "STATE": "VT", "ZIP": "05830", "Lon": -72.11834471, "Lat": 45.00150282, "GRTYPE": "Elementary", "Sector": "Public", "schData_avgconc": "13.5000000000000000", "schData_geom": "0101000020599101004852B2E6542D204120A6CA84B1F71041" }, "geometry": { "type": "Point", "coordinates": [ -72.118344848659177, 45.001500870363671 ] } },
{ "type": "Feature", "properties": { "OBJECTID": 56, "ORGID": "PS085", "ORGANIZATI": "Dorset School", "ADDRESS": "130 School Drive", "CITY": "Dorset", "STATE": "VT", "ZIP": "05251", "Lon": -73.06585693, "Lat": 43.22192764, "GRTYPE": "Elementary", "Sector": "Public", "schData_avgconc": null, "schData_geom": null }, "geometry": { "type": "Point", "coordinates": [ -73.0658569944123, 43.221926849277914 ] } },
{ "type": "Feature", "properties": { "OBJECTID": 57, "ORGID": "PS378", "ORGANIZATI": "Dothan Brook School", "ADDRESS": "2300 Christian Street", "CITY": "White River Jct", "STATE": "VT", "ZIP": "05001", "Lon": -72.32177401, "Lat": 43.68760719, "GRTYPE": "Elementary", "Sector": "Public", "schData_avgconc": null, "schData_geom": null }, "geometry": { "type": "Point", "coordinates": [ -72.32177298930857, 43.687605278877157 ] } },
{ "type": "Feature", "properties": { "OBJECTID": 58, "ORGID": "PS357", "ORGANIZATI": "Doty Memorial School", "ADDRESS": "24 Calais Rd", "CITY": "Worcester", "STATE": "VT", "ZIP": "05682-0162", "Lon": -72.54794862, "Lat": 44.3733486, "GRTYPE": "Elementary", "Sector": "Public", "schData_avgconc": null, "schData_geom": null }, "geometry": { "type": "Point", "coordinates": [ -72.547948303136465, 44.373347164239696 ] } },
{ "type": "Feature", "properties": { "OBJECTID": 59, "ORGID": "PS086", "ORGANIZATI": "Dover Elementary School", "ADDRESS": "9 Schoolhouse Road", "CITY": "East Dover", "STATE": "VT", "ZIP": "05341", "Lon": -72.80991018, "Lat": 42.93886302, "GRTYPE": "Elementary", "Sector": "Public", "schData_avgconc": "31.0400000000000000", "schData_geom": "010100002059910100008C74E945F91C4100B377999ED3E740" }, "geometry": { "type": "Point", "coordinates": [ -72.809910664187527, 42.938862371037558 ] } },
{ "type": "Feature", "properties": { "OBJECTID": 60, "ORGID": "PS087", "ORGANIZATI": "Dummerston Schools", "ADDRESS": "52 Schoolhouse Road", "CITY": "East Dummerston", "STATE": "VT", "ZIP": "05346", "Lon": -72.53791936, "Lat": 42.93366824, "GRTYPE": "Elementary", "Sector": "Public", "schData_avgconc": "40.4906250000000000", "schData_geom": "01010000205991010070352B3823541E41008D0047BF85E740" }, "geometry": { "type": "Point", "coordinates": [ -72.537919621443891, 42.933667492218326 ] } },
{ "type": "Feature", "properties": { "OBJECTID": 61, "ORGID": "PS091", "ORGANIZATI": "East Montpelier Elem School", "ADDRESS": "665 Vincent Flats Rd", "CITY": "East Montpelier", "STATE": "VT", "ZIP": "05651-0190", "Lon": -72.49529056, "Lat": 44.28687085, "GRTYPE": "Elementary", "Sector": "Public", "schData_avgconc": null, "schData_geom": null }, "geometry": { "type": "Point", "coordinates": [ -72.495290317336298, 44.286869414476968 ] } },
{ "type": "Feature", "properties": { "OBJECTID": 62, "ORGID": "PS093", "ORGANIZATI": "Eden Central School", "ADDRESS": "140 Knowles Flat Rd", "CITY": "Eden", "STATE": "VT", "ZIP": "05652", "Lon": -72.56358386, "Lat": 44.70407526, "GRTYPE": "Elementary", "Sector": "Public", "schData_avgconc": null, "schData_geom": null }, "geometry": { "type": "Point", "coordinates": [ -72.563583457891411, 44.70407367882968 ] } },
{ "type": "Feature", "properties": { "OBJECTID": 63, "ORGID": "PS094", "ORGANIZATI": "Edmunds Elementary School", "ADDRESS": "299 Main Street", "CITY": "Burlington", "STATE": "VT", "ZIP": "05401", "Lon": -73.20734355, "Lat": 44.47548008, "GRTYPE": "Elementary", "Sector": "Public", "schData_avgconc": null, "schData_geom": null }, "geometry": { "type": "Point", "coordinates": [ -73.207343817143951, 44.475477728700554 ] } },
{ "type": "Feature", "properties": { "OBJECTID": 64, "ORGID": "PS095", "ORGANIZATI": "Edmunds Middle School", "ADDRESS": "275 Main Street", "CITY": "Burlington", "STATE": "VT", "ZIP": "05401", "Lon": -73.20819893, "Lat": 44.47544947, "GRTYPE": "Middle", "Sector": "Public", "schData_avgconc": null, "schData_geom": null }, "geometry": { "type": "Point", "coordinates": [ -73.208199195692202, 44.475447116042652 ] } },
{ "type": "Feature", "properties": { "OBJECTID": 65, "ORGID": "PS277", "ORGANIZATI": "Elm Hill School", "ADDRESS": "10 Hoover Street", "CITY": "Springfield", "STATE": "VT", "ZIP": "05156", "Lon": -72.48445443, "Lat": 43.30588625, "GRTYPE": "Elementary", "Sector": "Public", "schData_avgconc": null, "schData_geom": null }, "geometry": { "type": "Point", "coordinates": [ -72.484454461013456, 43.305884724316449 ] } },
{ "type": "Feature", "properties": { "OBJECTID": 66, "ORGID": "PS156", "ORGANIZATI": "Elmore School", "ADDRESS": "1199 Vt Rte 12", "CITY": "Lake Elmore", "STATE": "VT", "ZIP": "05657", "Lon": -72.52296433, "Lat": 44.54067996, "GRTYPE": "Elementary", "Sector": "Public", "schData_avgconc": null, "schData_geom": null }, "geometry": { "type": "Point", "coordinates": [ -72.52296413989049, 44.540678534193134 ] } },
{ "type": "Feature", "properties": { "OBJECTID": 67, "ORGID": "PS096", "ORGANIZATI": "Enosburgh Elementary School", "ADDRESS": "303 Dickenson Avenue", "CITY": "Enosburg Falls", "STATE": "VT", "ZIP": "05450", "Lon": -72.80136481, "Lat": 44.90433888, "GRTYPE": "Elementary", "Sector": "Public", "schData_avgconc": null, "schData_geom": null }, "geometry": { "type": "Point", "coordinates": [ -72.801365230528944, 44.904336686464838 ] } },
{ "type": "Feature", "properties": { "OBJECTID": 68, "ORGID": "PS098", "ORGANIZATI": "Enosburgh Falls Middle-High School", "ADDRESS": "65 Dickenson Avenue", "CITY": "Enosburg Falls", "STATE": "VT", "ZIP": "05450", "Lon": -72.80384312, "Lat": 44.90518355, "GRTYPE": "Secondary", "Sector": "Public", "schData_avgconc": null, "schData_geom": null }, "geometry": { "type": "Point", "coordinates": [ -72.803843539201623, 44.905181353107814 ] } },
{ "type": "Feature", "properties": { "OBJECTID": 69, "ORGID": "PS099", "ORGANIZATI": "Essex Elementary School", "ADDRESS": "1 Bixby Hill Road", "CITY": "Essex Junction", "STATE": "VT", "ZIP": "05452", "Lon": -73.0558208, "Lat": 44.51306852, "GRTYPE": "Elementary", "Sector": "Public", "schData_avgconc": null, "schData_geom": null }, "geometry": { "type": "Point", "coordinates": [ -73.055820368507767, 44.513066645072819 ] } },
{ "type": "Feature", "properties": { "OBJECTID": 70, "ORGID": "PS101", "ORGANIZATI": "Essex Middle School", "ADDRESS": "60 Founders Rd", "CITY": "Essex Junction", "STATE": "VT", "ZIP": "05452", "Lon": -73.05850431, "Lat": 44.49901773, "GRTYPE": "Middle", "Sector": "Public", "schData_avgconc": null, "schData_geom": null }, "geometry": { "type": "Point", "coordinates": [ -73.058503873822715, 44.49901590126926 ] } },
{ "type": "Feature", "properties": { "OBJECTID": 71, "ORGID": "PS388", "ORGANIZATI": "Essex UHSD #46", "ADDRESS": "2 Educational Lane", "CITY": "Essex Junction", "STATE": "VT", "ZIP": "05452", "Lon": -73.10859083, "Lat": 44.49748478, "GRTYPE": "Secondary", "Sector": "Public", "schData_avgconc": null, "schData_geom": null }, "geometry": { "type": "Point", "coordinates": [ -73.108590652954121, 44.497482771073898 ] } },
{ "type": "Feature", "properties": { "OBJECTID": 72, "ORGID": "PS103", "ORGANIZATI": "Fair Haven Grade School", "ADDRESS": "103 N. Main Street", "CITY": "Fair Haven", "STATE": "VT", "ZIP": "05743", "Lon": -73.26455055, "Lat": 43.59487634, "GRTYPE": "Elementary", "Sector": "Public", "schData_avgconc": null, "schData_geom": null }, "geometry": { "type": "Point", "coordinates": [ -73.264549599265379, 43.594874964347987 ] } },
{ "type": "Feature", "properties": { "OBJECTID": 73, "ORGID": "PS104", "ORGANIZATI": "Fair Haven UHS #16", "ADDRESS": "33 Mechanic Street Extension", "CITY": "Fair Haven", "STATE": "VT", "ZIP": "05743", "Lon": -73.27021789, "Lat": 43.60351563, "GRTYPE": "Secondary", "Sector": "Public", "schData_avgconc": null, "schData_geom": null }, "geometry": { "type": "Point", "coordinates": [ -73.270216931601965, 43.603514232477281 ] } },
{ "type": "Feature", "properties": { "OBJECTID": 74, "ORGID": "PS105", "ORGANIZATI": "Fairfield Center School", "ADDRESS": "57 Park Street", "CITY": "Fairfield", "STATE": "VT", "ZIP": "05455", "Lon": -72.94792175000001, "Lat": 44.80051041, "GRTYPE": "Elementary", "Sector": "Public", "schData_avgconc": "7.5083333333333333", "schData_geom": "0101000020599101000074F6D9C65A1C410082BA513D360F41" }, "geometry": { "type": "Point", "coordinates": [ -72.947921556294858, 44.800508300138027 ] } },
{ "type": "Feature", "properties": { "OBJECTID": 75, "ORGID": "PS107", "ORGANIZATI": "Fayston Elementary School", "ADDRESS": "782 German Flats Road", "CITY": "Fayston", "STATE": "VT", "ZIP": "05673", "Lon": -72.88425695, "Lat": 44.17918431, "GRTYPE": "Elementary", "Sector": "Public", "schData_avgconc": null, "schData_geom": null }, "geometry": { "type": "Point", "coordinates": [ -72.884256030754116, 44.179182577066882 ] } },
{ "type": "Feature", "properties": { "OBJECTID": 76, "ORGID": "PS108", "ORGANIZATI": "Ferrisburgh Central School", "ADDRESS": "56 Little Chicago Road", "CITY": "Ferrisburgh", "STATE": "VT", "ZIP": "05456", "Lon": -73.24791986, "Lat": 44.20677091, "GRTYPE": "Elementary", "Sector": "Public", "schData_avgconc": null, "schData_geom": null }, "geometry": { "type": "Point", "coordinates": [ -73.247919313562008, 44.206768485201401 ] } },
{ "type": "Feature", "properties": { "OBJECTID": 77, "ORGID": "PS109", "ORGANIZATI": "Fisher School", "ADDRESS": "504 East Arlington Rd", "CITY": "Arlington", "STATE": "VT", "ZIP": "05250", "Lon": -73.15365909, "Lat": 43.06616937, "GRTYPE": "Elementary", "Sector": "Public", "schData_avgconc": "2.9000000000000000", "schData_geom": "010100002059910100B088F0399C441B4100C9E69E81CFEE40" }, "geometry": { "type": "Point", "coordinates": [ -73.153659197623412, 43.066168834775915 ] } },
{ "type": "Feature", "properties": { "OBJECTID": 78, "ORGID": "PS110", "ORGANIZATI": "Fletcher Elementary School", "ADDRESS": "340 School Road", "CITY": "Cambridge", "STATE": "VT", "ZIP": "05444", "Lon": -72.92386516000001, "Lat": 44.67040662, "GRTYPE": "Elementary", "Sector": "Public", "schData_avgconc": null, "schData_geom": null }, "geometry": { "type": "Point", "coordinates": [ -72.923864573771382, 44.670404745545675 ] } },
{ "type": "Feature", "properties": { "OBJECTID": 79, "ORGID": "PS111", "ORGANIZATI": "Flood Brook US #301", "ADDRESS": "91 Vt Route 11", "CITY": "Londonderry", "STATE": "VT", "ZIP": "05148", "Lon": -72.84815855, "Lat": 43.23696705, "GRTYPE": "Elementary", "Sector": "Public", "schData_avgconc": null, "schData_geom": null }, "geometry": { "type": "Point", "coordinates": [ -72.848158715321659, 43.236966016988099 ] } },
{ "type": "Feature", "properties": { "OBJECTID": 80, "ORGID": "PS112", "ORGANIZATI": "Folsom Ed And Community CTR", "ADDRESS": "75 South Street", "CITY": "South Hero", "STATE": "VT", "ZIP": "05486", "Lon": -73.30220795, "Lat": 44.63631058, "GRTYPE": "Elementary", "Sector": "Public", "schData_avgconc": null, "schData_geom": null }, "geometry": { "type": "Point", "coordinates": [ -73.302208515027104, 44.636307052522518 ] } },
{ "type": "Feature", "properties": { "OBJECTID": 81, "ORGID": "PS113", "ORGANIZATI": "Founders Memorial School", "ADDRESS": "33 Founders Rd", "CITY": "Essex Junction", "STATE": "VT", "ZIP": "05452", "Lon": -73.05535944, "Lat": 44.50039953, "GRTYPE": "Elementary", "Sector": "Public", "schData_avgconc": null, "schData_geom": null }, "geometry": { "type": "Point", "coordinates": [ -73.05535898694481, 44.500397714414504 ] } },
{ "type": "Feature", "properties": { "OBJECTID": 82, "ORGID": "PS115", "ORGANIZATI": "Franklin Elementary School", "ADDRESS": "15 School St", "CITY": "Franklin", "STATE": "VT", "ZIP": "05457", "Lon": -72.92018338, "Lat": 44.98424067, "GRTYPE": "Elementary", "Sector": "Public", "schData_avgconc": null, "schData_geom": null }, "geometry": { "type": "Point", "coordinates": [ -72.920184124710602, 44.984238404468911 ] } },
{ "type": "Feature", "properties": { "OBJECTID": 83, "ORGID": "PS273", "ORGANIZATI": "Frederick H Tuttle Middle School", "ADDRESS": "500 Dorset Street", "CITY": "S Burlington", "STATE": "VT", "ZIP": "05403", "Lon": -73.17727344, "Lat": 44.45670637, "GRTYPE": "Middle", "Sector": "Public", "schData_avgconc": null, "schData_geom": null }, "geometry": { "type": "Point", "coordinates": [ -73.177273508642884, 44.45670411889833 ] } },
{ "type": "Feature", "properties": { "OBJECTID": 84, "ORGID": "PS117", "ORGANIZATI": "Georgia Elem/Middle School", "ADDRESS": "4416 Ethan Allen Highway", "CITY": "St Albans", "STATE": "VT", "ZIP": "05478", "Lon": -73.11418834, "Lat": 44.73529636, "GRTYPE": "Elementary", "Sector": "Public", "schData_avgconc": null, "schData_geom": null }, "geometry": { "type": "Point", "coordinates": [ -73.114188582045585, 44.735292873515228 ] } },
{ "type": "Feature", "properties": { "OBJECTID": 85, "ORGID": "PS118", "ORGANIZATI": "Glover Community School", "ADDRESS": "100 School Street", "CITY": "Glover", "STATE": "VT", "ZIP": "05839", "Lon": -72.18969375, "Lat": 44.70588111, "GRTYPE": "Elementary", "Sector": "Public", "schData_avgconc": null, "schData_geom": null }, "geometry": { "type": "Point", "coordinates": [ -72.189694001671626, 44.705879509820655 ] } },
{ "type": "Feature", "properties": { "OBJECTID": 86, "ORGID": "PS122", "ORGANIZATI": "Grand Isle School", "ADDRESS": "224 Us Rte 2", "CITY": "Grand Isle", "STATE": "VT", "ZIP": "05458", "Lon": -73.29140443, "Lat": 44.7254983, "GRTYPE": "Elementary", "Sector": "Public", "schData_avgconc": null, "schData_geom": null }, "geometry": { "type": "Point", "coordinates": [ -73.291405224271926, 44.72549382241327 ] } },
{ "type": "Feature", "properties": { "OBJECTID": 87, "ORGID": "PS124", "ORGANIZATI": "Green Mountain UHS #35", "ADDRESS": "716 Vt Rte 103 South", "CITY": "Chester", "STATE": "VT", "ZIP": "05143", "Lon": -72.58145904, "Lat": 43.25361252, "GRTYPE": "Secondary", "Sector": "Public", "schData_avgconc": null, "schData_geom": null }, "geometry": { "type": "Point", "coordinates": [ -72.581459320072241, 43.25361113587384 ] } },
{ "type": "Feature", "properties": { "OBJECTID": 88, "ORGID": "PS385", "ORGANIZATI": "Green Street School", "ADDRESS": "164 Green Street", "CITY": "Brattleboro", "STATE": "VT", "ZIP": "05301", "Lon": -72.565, "Lat": 42.85174, "GRTYPE": "Elementary", "Sector": "Public", "schData_avgconc": null, "schData_geom": null }, "geometry": { "type": "Point", "coordinates": [ -72.564999984008523, 42.851739660450143 ] } },
{ "type": "Feature", "properties": { "OBJECTID": 89, "ORGID": "PS127", "ORGANIZATI": "Guildhall Elementary School", "ADDRESS": "Route 102", "CITY": "Guildhall", "STATE": "VT", "ZIP": "05905", "Lon": -71.5644107, "Lat": 44.5664658, "GRTYPE": "Elementary", "Sector": "Public", "schData_avgconc": null, "schData_geom": null }, "geometry": { "type": "Point", "coordinates": [ -71.564410468017911, 44.566464200973897 ] } },
{ "type": "Feature", "properties": { "OBJECTID": 90, "ORGID": "PS128", "ORGANIZATI": "Guilford Central School", "ADDRESS": "374 School Road", "CITY": "Guilford", "STATE": "VT", "ZIP": "05301", "Lon": -72.62235285, "Lat": 42.80070816, "GRTYPE": "Elementary", "Sector": "Public", "schData_avgconc": null, "schData_geom": null }, "geometry": { "type": "Point", "coordinates": [ -72.622352861827991, 42.800707980240119 ] } },
{ "type": "Feature", "properties": { "OBJECTID": 91, "ORGID": "PS129", "ORGANIZATI": "Halifax School", "ADDRESS": "246 Branch Road", "CITY": "West Halifax", "STATE": "VT", "ZIP": "05358", "Lon": -72.76854454, "Lat": 42.78439253, "GRTYPE": "Elementary", "Sector": "Public", "schData_avgconc": null, "schData_geom": null }, "geometry": { "type": "Point", "coordinates": [ -72.76854500607098, 42.784392192558592 ] } },
{ "type": "Feature", "properties": { "OBJECTID": 92, "ORGID": "PS131", "ORGANIZATI": "Hardwick Elementary School", "ADDRESS": "135 South Main Street", "CITY": "Hardwick", "STATE": "VT", "ZIP": "05843", "Lon": -72.3681882, "Lat": 44.50334171, "GRTYPE": "Elementary", "Sector": "Public", "schData_avgconc": "26.1666666666666667", "schData_geom": "010100002059910100005F8CD847281F4180B59C91862B0B41" }, "geometry": { "type": "Point", "coordinates": [ -72.368188331151003, 44.50334010535888 ] } },
{ "type": "Feature", "properties": { "OBJECTID": 93, "ORGID": "PS134", "ORGANIZATI": "Hartford High School", "ADDRESS": "37 Highland Avenue", "CITY": "White River Jct", "STATE": "VT", "ZIP": "05001", "Lon": -72.31886178000001, "Lat": 43.65765397, "GRTYPE": "Secondary", "Sector": "Public", "schData_avgconc": null, "schData_geom": null }, "geometry": { "type": "Point", "coordinates": [ -72.318860840581479, 43.657652093469224 ] } },
{ "type": "Feature", "properties": { "OBJECTID": 94, "ORGID": "PS135", "ORGANIZATI": "Hartford Mem Middle School", "ADDRESS": "245 Highland Avenue", "CITY": "White River Jct", "STATE": "VT", "ZIP": "05001", "Lon": -72.31993866000001, "Lat": 43.65635681, "GRTYPE": "Middle", "Sector": "Public", "schData_avgconc": "4.9153846153846154", "schData_geom": "0101000020599101007051447272671F4100614964BC5DFF40" }, "geometry": { "type": "Point", "coordinates": [ -72.319937720211811, 43.656354939730484 ] } },
{ "type": "Feature", "properties": { "OBJECTID": 95, "ORGID": "PS137", "ORGANIZATI": "Hartland Elementary School", "ADDRESS": "97 Martinsville Road", "CITY": "Hartland", "STATE": "VT", "ZIP": "05048", "Lon": -72.39408875, "Lat": 43.5381279, "GRTYPE": "Elementary", "Sector": "Public", "schData_avgconc": null, "schData_geom": null }, "geometry": { "type": "Point", "coordinates": [ -72.394088084063668, 43.538126202991855 ] } },
{ "type": "Feature", "properties": { "OBJECTID": 96, "ORGID": "PS138", "ORGANIZATI": "Harwood UHS #19", "ADDRESS": "458 Vt Route 100", "CITY": "Duxbury", "STATE": "VT", "ZIP": "05660", "Lon": -72.78643663, "Lat": 44.25403172, "GRTYPE": "Secondary", "Sector": "Public", "schData_avgconc": null, "schData_geom": null }, "geometry": { "type": "Point", "coordinates": [ -72.786435876691542, 44.254030046918274 ] } },
{ "type": "Feature", "properties": { "OBJECTID": 97, "ORGID": "PS139", "ORGANIZATI": "Hazen UHS #26", "ADDRESS": "126 Hazen Union Drive", "CITY": "Hardwick", "STATE": "VT", "ZIP": "05843", "Lon": -72.36469997, "Lat": 44.50892114, "GRTYPE": "Secondary", "Sector": "Public", "schData_avgconc": null, "schData_geom": null }, "geometry": { "type": "Point", "coordinates": [ -72.36470009468961, 44.508919532574026 ] } },
{ "type": "Feature", "properties": { "OBJECTID": 98, "ORGID": "PS141", "ORGANIZATI": "Hiawatha School", "ADDRESS": "34 Hiawatha Avenue", "CITY": "Essex Junction", "STATE": "VT", "ZIP": "05452", "Lon": -73.12791048, "Lat": 44.48897574, "GRTYPE": "Elementary", "Sector": "Public", "schData_avgconc": null, "schData_geom": null }, "geometry": { "type": "Point", "coordinates": [ -73.127910384269995, 44.48897366390301 ] } },
{ "type": "Feature", "properties": { "OBJECTID": 99, "ORGID": "PS142", "ORGANIZATI": "Highgate Elementary School", "ADDRESS": "219 Gore Road", "CITY": "Highgate Center", "STATE": "VT", "ZIP": "05459", "Lon": -73.04409389, "Lat": 44.94133174, "GRTYPE": "Elementary", "Sector": "Public", "schData_avgconc": null, "schData_geom": null }, "geometry": { "type": "Point", "coordinates": [ -73.044094313290159, 44.941329462320248 ] } },
{ "type": "Feature", "properties": { "OBJECTID": 100, "ORGID": "PS143", "ORGANIZATI": "Hinesburg Community School", "ADDRESS": "10888 Rt 116", "CITY": "Hinesburg", "STATE": "VT", "ZIP": "05461", "Lon": -73.1080558, "Lat": 44.32620961, "GRTYPE": "Elementary", "Sector": "Public", "schData_avgconc": null, "schData_geom": null }, "geometry": { "type": "Point", "coordinates": [ -73.108055402333889, 44.326207522931298 ] } },
{ "type": "Feature", "properties": { "OBJECTID": 101, "ORGID": "PS144", "ORGANIZATI": "Holland Elementary School", "ADDRESS": "26 School Road", "CITY": "Derby Line", "STATE": "VT", "ZIP": "05830", "Lon": -72.01269811, "Lat": 44.97312284, "GRTYPE": "Elementary", "Sector": "Public", "schData_avgconc": null, "schData_geom": null }, "geometry": { "type": "Point", "coordinates": [ -72.012698205949818, 44.973120920134775 ] } },
{ "type": "Feature", "properties": { "OBJECTID": 102, "ORGID": "PS169", "ORGANIZATI": "Hunt Middle School", "ADDRESS": "1364 North Avenue", "CITY": "Burlington", "STATE": "VT", "ZIP": "05401", "Lon": -73.24918817, "Lat": 44.51337031, "GRTYPE": "Middle", "Sector": "Public", "schData_avgconc": null, "schData_geom": null }, "geometry": { "type": "Point", "coordinates": [ -73.249188747536238, 44.513367668493871 ] } },
{ "type": "Feature", "properties": { "OBJECTID": 103, "ORGID": "PS145", "ORGANIZATI": "Hyde Park Elementary School", "ADDRESS": "50 East Main Street", "CITY": "Hyde Park", "STATE": "VT", "ZIP": "05655", "Lon": -72.61359165, "Lat": 44.59207232, "GRTYPE": "Elementary", "Sector": "Public", "schData_avgconc": "35.3750000000000000", "schData_geom": "010100002059910100002D40A092F71D41006D1069925F0C41" }, "geometry": { "type": "Point", "coordinates": [ -72.613591148512086, 44.592070835976514 ] } },
{ "type": "Feature", "properties": { "OBJECTID": 104, "ORGID": "PS337", "ORGANIZATI": "Integrated Arts Acad At Ho Wheeler", "ADDRESS": "6 Archibald Street", "CITY": "Burlington", "STATE": "VT", "ZIP": "05401", "Lon": -73.21390296, "Lat": 44.48799308, "GRTYPE": "Elementary", "Sector": "Public", "schData_avgconc": "40.0000000000000000", "schData_geom": "010100002059910100403278D5370D1B41C07B823EB6FD0A41" }, "geometry": { "type": "Point", "coordinates": [ -73.213903295326418, 44.487990711015904 ] } },
{ "type": "Feature", "properties": { "OBJECTID": 105, "ORGID": "PS147", "ORGANIZATI": "Irasburg Village School", "ADDRESS": "292 Route 58 East", "CITY": "Irasburg", "STATE": "VT", "ZIP": "05845", "Lon": -72.27281264, "Lat": 44.80364628, "GRTYPE": "Elementary", "Sector": "Public", "schData_avgconc": null, "schData_geom": null }, "geometry": { "type": "Point", "coordinates": [ -72.272812655324515, 44.803644708569841 ] } },
{ "type": "Feature", "properties": { "OBJECTID": 106, "ORGID": "PS148", "ORGANIZATI": "Isle La Motte Elem School", "ADDRESS": "534 School St", "CITY": "Isle Lamotte", "STATE": "VT", "ZIP": "05463", "Lon": -73.34520101, "Lat": 44.88246319, "GRTYPE": "Elementary", "Sector": "Public", "schData_avgconc": null, "schData_geom": null }, "geometry": { "type": "Point", "coordinates": [ -73.345201238282556, 44.882460280827374 ] } },
{ "type": "Feature", "properties": { "OBJECTID": 107, "ORGID": "PS154", "ORGANIZATI": "JFK Middle", "ADDRESS": "70 Normand Street", "CITY": "Winooski", "STATE": "VT", "ZIP": "05404-1393", "Lon": -73.18070944, "Lat": 44.5002786, "GRTYPE": "Elementary", "Sector": "Public", "schData_avgconc": null, "schData_geom": null }, "geometry": { "type": "Point", "coordinates": [ -73.180709642859554, 44.500276338208259 ] } },
{ "type": "Feature", "properties": { "OBJECTID": 108, "ORGID": "PS155", "ORGANIZATI": "J J Flynn School", "ADDRESS": "1645 North Avenue", "CITY": "Burlington", "STATE": "VT", "ZIP": "05401", "Lon": -73.26000212, "Lat": 44.51702307, "GRTYPE": "Elementary", "Sector": "Public", "schData_avgconc": "4.6555555555555556", "schData_geom": "010100002059910100405C005164D41A41401A53C38C630B41" }, "geometry": { "type": "Point", "coordinates": [ -73.260002668518126, 44.51702043243251 ] } },
{ "type": "Feature", "properties": { "OBJECTID": 109, "ORGID": "PS149", "ORGANIZATI": "Jamaica Village School", "ADDRESS": "347 Depot St", "CITY": "Jamaica", "STATE": "VT", "ZIP": "05343", "Lon": -72.77502243000001, "Lat": 43.10406588, "GRTYPE": "Elementary", "Sector": "Public", "schData_avgconc": "9.3000000000000000", "schData_geom": "01010000205991010000660D54B4261D4100B912243564F040" }, "geometry": { "type": "Point", "coordinates": [ -72.775022840663979, 43.104064931584553 ] } },
{ "type": "Feature", "properties": { "OBJECTID": 110, "ORGID": "PS374", "ORGANIZATI": "Jay/Westfield Joint School", "ADDRESS": "257 Revoir Flats Rd", "CITY": "Jay", "STATE": "VT", "ZIP": "05859", "Lon": -72.43502808, "Lat": 44.95266342, "GRTYPE": "Elementary", "Sector": "Public", "schData_avgconc": null, "schData_geom": null }, "geometry": { "type": "Point", "coordinates": [ -72.435028577120335, 44.952661550821951 ] } },
{ "type": "Feature", "properties": { "OBJECTID": 111, "ORGID": "PS152", "ORGANIZATI": "Jericho Elementary School", "ADDRESS": "90 Vt Rte 15", "CITY": "Jericho", "STATE": "VT", "ZIP": "05465-9423", "Lon": -72.99047679, "Lat": 44.50562666, "GRTYPE": "Elementary", "Sector": "Public", "schData_avgconc": null, "schData_geom": null }, "geometry": { "type": "Point", "coordinates": [ -72.990476047119756, 44.505625031244897 ] } },
{ "type": "Feature", "properties": { "OBJECTID": 112, "ORGID": "PS351", "ORGANIZATI": "Winooski High School", "ADDRESS": "80 Normand Street", "CITY": "Winooski", "STATE": "VT", "ZIP": "05404", "Lon": -73.18027764, "Lat": 44.50079941, "GRTYPE": "Secondary", "Sector": "Public", "schData_avgconc": null, "schData_geom": null }, "geometry": { "type": "Point", "coordinates": [ -73.180277832392505, 44.500797145955268 ] } },
{ "type": "Feature", "properties": { "OBJECTID": 113, "ORGID": "PS153", "ORGANIZATI": "Johnson Elementary School", "ADDRESS": "57 College Hill", "CITY": "Johnson", "STATE": "VT", "ZIP": "05656", "Lon": -72.67491041, "Lat": 44.63714055, "GRTYPE": "Elementary", "Sector": "Public", "schData_avgconc": null, "schData_geom": null }, "geometry": { "type": "Point", "coordinates": [ -72.674909797180035, 44.637138986283489 ] } },
{ "type": "Feature", "properties": { "OBJECTID": 114, "ORGID": "PS267", "ORGANIZATI": "Killington Elementary School", "ADDRESS": "686 School House Road", "CITY": "Killington", "STATE": "VT", "ZIP": "05751", "Lon": -72.79402924, "Lat": 43.64456558, "GRTYPE": "Elementary", "Sector": "Public", "schData_avgconc": null, "schData_geom": null }, "geometry": { "type": "Point", "coordinates": [ -72.794028594178243, 43.644564047881062 ] } },
{ "type": "Feature", "properties": { "OBJECTID": 115, "ORGID": "PS157", "ORGANIZATI": "Lake Region UHS #24", "ADDRESS": "317 Lake Region Road", "CITY": "Orleans", "STATE": "VT", "ZIP": "05860", "Lon": -72.2206491, "Lat": 44.78260258, "GRTYPE": "Secondary", "Sector": "Public", "schData_avgconc": null, "schData_geom": null }, "geometry": { "type": "Point", "coordinates": [ -72.220649188334534, 44.782601035567566 ] } },
{ "type": "Feature", "properties": { "OBJECTID": 116, "ORGID": "PS126", "ORGANIZATI": "Lakeview US #43", "ADDRESS": "189 Laurendon Ave", "CITY": "Greensboro", "STATE": "VT", "ZIP": "05841", "Lon": -72.29399645, "Lat": 44.58081885, "GRTYPE": "Elementary", "Sector": "Public", "schData_avgconc": null, "schData_geom": null }, "geometry": { "type": "Point", "coordinates": [ -72.29399657375032, 44.580817205188282 ] } },
{ "type": "Feature", "properties": { "OBJECTID": 117, "ORGID": "PS158", "ORGANIZATI": "Lamoille UHS", "ADDRESS": "736 Vt Route 15 West", "CITY": "Hyde Park", "STATE": "VT", "ZIP": "05655", "Lon": -72.6306363, "Lat": 44.60116447, "GRTYPE": "Secondary", "Sector": "Public", "schData_avgconc": null, "schData_geom": null }, "geometry": { "type": "Point", "coordinates": [ -72.63063574820616, 44.601162972216017 ] } },
{ "type": "Feature", "properties": { "OBJECTID": 118, "ORGID": "PS160", "ORGANIZATI": "Leicester Central School", "ADDRESS": "68 Schoolhouse Road", "CITY": "Leicester", "STATE": "VT", "ZIP": "05733", "Lon": -73.10918539, "Lat": 43.86683205, "GRTYPE": "Elementary", "Sector": "Public", "schData_avgconc": null, "schData_geom": null }, "geometry": { "type": "Point", "coordinates": [ -73.10918404866743, 43.866830126422201 ] } },
{ "type": "Feature", "properties": { "OBJECTID": 119, "ORGID": "PS161", "ORGANIZATI": "Leland And Gray UHS #34", "ADDRESS": "2042 Vt Rt 30", "CITY": "Townshend", "STATE": "VT", "ZIP": "05353", "Lon": -72.66708328, "Lat": 43.04659116, "GRTYPE": "Secondary", "Sector": "Public", "schData_avgconc": null, "schData_geom": null }, "geometry": { "type": "Point", "coordinates": [ -72.667083789157005, 43.046590151735003 ] } },
{ "type": "Feature", "properties": { "OBJECTID": 120, "ORGID": "PS162", "ORGANIZATI": "Lincoln Community School", "ADDRESS": "795 East River Rd", "CITY": "Lincoln", "STATE": "VT", "ZIP": "05443", "Lon": -72.98616802, "Lat": 44.09766647, "GRTYPE": "Elementary", "Sector": "Public", "schData_avgconc": null, "schData_geom": null }, "geometry": { "type": "Point", "coordinates": [ -72.986166627130743, 44.097664687853801 ] } },
{ "type": "Feature", "properties": { "OBJECTID": 121, "ORGID": "PS165", "ORGANIZATI": "Lothrop School", "ADDRESS": "3447 Us Route 7", "CITY": "Pittsford", "STATE": "VT", "ZIP": "05763", "Lon": -73.01898765, "Lat": 43.70564249, "GRTYPE": "Elementary", "Sector": "Public", "schData_avgconc": null, "schData_geom": null }, "geometry": { "type": "Point", "coordinates": [ -73.018986789587174, 43.705640838105879 ] } },
{ "type": "Feature", "properties": { "OBJECTID": 122, "ORGID": "PS166", "ORGANIZATI": "Lowell Graded School", "ADDRESS": "52 Gelo Park Road", "CITY": "Lowell", "STATE": "VT", "ZIP": "05847", "Lon": -72.44881556, "Lat": 44.80538867, "GRTYPE": "Elementary", "Sector": "Public", "schData_avgconc": null, "schData_geom": null }, "geometry": { "type": "Point", "coordinates": [ -72.448815468780282, 44.805387025710253 ] } },
{ "type": "Feature", "properties": { "OBJECTID": 123, "ORGID": "PS167", "ORGANIZATI": "Ludlow Elementary School", "ADDRESS": "45 Main Street", "CITY": "Ludlow", "STATE": "VT", "ZIP": "05149", "Lon": -72.68855214, "Lat": 43.39705962, "GRTYPE": "Elementary", "Sector": "Public", "schData_avgconc": "6.9956521739130435", "schData_geom": "01010000205991010020BD13C3D4951D41805CBDE85955F840" }, "geometry": { "type": "Point", "coordinates": [ -72.688551899208591, 43.397058252389371 ] } },
{ "type": "Feature", "properties": { "OBJECTID": 124, "ORGID": "PS168", "ORGANIZATI": "Lunenburg/Gilman Schools", "ADDRESS": "2720 River Road", "CITY": "Gilman", "STATE": "VT", "ZIP": "05904", "Lon": -71.71448313, "Lat": 44.4147729, "GRTYPE": "Elementary", "Sector": "Public", "schData_avgconc": null, "schData_geom": null }, "geometry": { "type": "Point", "coordinates": [ -71.714482830790033, 44.414771083873696 ] } },
{ "type": "Feature", "properties": { "OBJECTID": 125, "ORGID": "PA003", "ORGANIZATI": "Lyndon Institute", "ADDRESS": "63 King Dr", "CITY": "Lyndon Center", "STATE": "VT", "ZIP": "05850", "Lon": -72.0154517, "Lat": 44.5384112, "GRTYPE": "Charter", "Sector": "Public", "schData_avgconc": null, "schData_geom": null }, "geometry": { "type": "Point", "coordinates": [ -72.015453031027064, 44.538408802512599 ] } },
{ "type": "Feature", "properties": { "OBJECTID": 126, "ORGID": "PS170", "ORGANIZATI": "Lyndon Town School", "ADDRESS": "2591 Lily Pond Road", "CITY": "Lyndonville", "STATE": "VT", "ZIP": "05851", "Lon": -71.98538502, "Lat": 44.54653664, "GRTYPE": "Elementary", "Sector": "Public", "schData_avgconc": null, "schData_geom": null }, "geometry": { "type": "Point", "coordinates": [ -71.985386362762924, 44.546534274756006 ] } },
{ "type": "Feature", "properties": { "OBJECTID": 127, "ORGID": "PS173", "ORGANIZATI": "Main Street Middle School", "ADDRESS": "170 Main Street", "CITY": "Montpelier", "STATE": "VT", "ZIP": "05602", "Lon": -72.56966316, "Lat": 44.26297202, "GRTYPE": "Middle", "Sector": "Public", "schData_avgconc": "6.9000000000000000", "schData_geom": "0101000020599101002072CF13962D1E41C0219EF6AEE80741" }, "geometry": { "type": "Point", "coordinates": [ -72.569662751678877, 44.262970534278303 ] } },
{ "type": "Feature", "properties": { "OBJECTID": 128, "ORGID": "PS061A", "ORGANIZATI": "Castleton Elementary School", "ADDRESS": "263 Elm School Road", "CITY": "Castleton", "STATE": "VT", "ZIP": "05735", "Lon": -73.21202087, "Lat": 43.62001038, "GRTYPE": "Elementary", "Sector": "Public", "schData_avgconc": null, "schData_geom": null }, "geometry": { "type": "Point", "coordinates": [ -73.212019960052658, 43.620008896753973 ] } },
{ "type": "Feature", "properties": { "OBJECTID": 129, "ORGID": "PS061B", "ORGANIZATI": "Castleton Village School", "ADDRESS": "47 Mechanic St", "CITY": "Castleton", "STATE": "VT", "ZIP": "05735", "Lon": -73.1782074, "Lat": 43.61240768, "GRTYPE": "Middle", "Sector": "Public", "schData_avgconc": null, "schData_geom": null }, "geometry": { "type": "Point", "coordinates": [ -73.178206544709184, 43.612406220608783 ] } },
{ "type": "Feature", "properties": { "OBJECTID": 130, "ORGID": "PS174", "ORGANIZATI": "Malletts Bay School", "ADDRESS": "609 Blakely Rd", "CITY": "Colchester", "STATE": "VT", "ZIP": "05446", "Lon": -73.20784759, "Lat": 44.53861237, "GRTYPE": "Elementary", "Sector": "Public", "schData_avgconc": null, "schData_geom": null }, "geometry": { "type": "Point", "coordinates": [ -73.207848010250558, 44.538609642716274 ] } },
{ "type": "Feature", "properties": { "OBJECTID": 131, "ORGID": "PS175", "ORGANIZATI": "Manchester Elem/Middle School", "ADDRESS": "80 Memorial Avenue", "CITY": "Manchester Ctr", "STATE": "VT", "ZIP": "05255", "Lon": -73.05366878, "Lat": 43.17874272, "GRTYPE": "Elementary", "Sector": "Public", "schData_avgconc": null, "schData_geom": null }, "geometry": { "type": "Point", "coordinates": [ -73.053668884029847, 43.17874197641445 ] } },
{ "type": "Feature", "properties": { "OBJECTID": 132, "ORGID": "PS176", "ORGANIZATI": "Marion W Cross School", "ADDRESS": "22 Church Street", "CITY": "Norwich", "STATE": "VT", "ZIP": "05055", "Lon": -72.30649485000001, "Lat": 43.71332471, "GRTYPE": "Elementary", "Sector": "Public", "schData_avgconc": null, "schData_geom": null }, "geometry": { "type": "Point", "coordinates": [ -72.306493734533063, 43.713322758206068 ] } },
{ "type": "Feature", "properties": { "OBJECTID": 133, "ORGID": "PS177", "ORGANIZATI": "Marlboro Elementary School", "ADDRESS": "2669 Rte 9", "CITY": "Marlboro", "STATE": "VT", "ZIP": "05344", "Lon": -72.71968842, "Lat": 42.86869812, "GRTYPE": "Elementary", "Sector": "Public", "schData_avgconc": "67.5294117647058824", "schData_geom": "010100002059910100508CB7BD036C1D4100AE62C06B02E440" }, "geometry": { "type": "Point", "coordinates": [ -72.719688871371261, 42.868697608937595 ] } },
{ "type": "Feature", "properties": { "OBJECTID": 134, "ORGID": "PS295", "ORGANIZATI": "Mary S Babcock Elementary", "ADDRESS": "113 Grand Avenue", "CITY": "Swanton", "STATE": "VT", "ZIP": "05488", "Lon": -73.11393633, "Lat": 44.91455885, "GRTYPE": "Elementary", "Sector": "Public", "schData_avgconc": null, "schData_geom": null }, "geometry": { "type": "Point", "coordinates": [ -73.113936679740831, 44.914556260302163 ] } },
{ "type": "Feature", "properties": { "OBJECTID": 135, "ORGID": "PS392", "ORGANIZATI": "Mettawee Community US #47", "ADDRESS": "5788 Vt Route 153", "CITY": "West Pawlet", "STATE": "VT", "ZIP": "05775", "Lon": -73.22368941000001, "Lat": 43.38572867, "GRTYPE": "Elementary", "Sector": "Public", "schData_avgconc": null, "schData_geom": null }, "geometry": { "type": "Point", "coordinates": [ -73.22368898744098, 43.385727679322827 ] } },
{ "type": "Feature", "properties": { "OBJECTID": 136, "ORGID": "PS179", "ORGANIZATI": "Middlebury ID#4", "ADDRESS": "201 Mary Hogan Drive", "CITY": "Middlebury", "STATE": "VT", "ZIP": "05753", "Lon": -73.16181297, "Lat": 44.01089952, "GRTYPE": "Elementary", "Sector": "Public", "schData_avgconc": null, "schData_geom": null }, "geometry": { "type": "Point", "coordinates": [ -73.161811443153269, 44.010897276412777 ] } },
{ "type": "Feature", "properties": { "OBJECTID": 137, "ORGID": "PS180", "ORGANIZATI": "Middlebury Union High School", "ADDRESS": "73 Charles Avenue", "CITY": "Middlebury", "STATE": "VT", "ZIP": "05753", "Lon": -73.16313653, "Lat": 44.00669412, "GRTYPE": "Secondary", "Sector": "Public", "schData_avgconc": "19.8272727272727273", "schData_geom": "01010000205991010060CC5BB890451B410007126B70750441" }, "geometry": { "type": "Point", "coordinates": [ -73.163134982531645, 44.006691873827521 ] } },
{ "type": "Feature", "properties": { "OBJECTID": 138, "ORGID": "PS366", "ORGANIZATI": "Middlebury Union Middle School #3", "ADDRESS": "48 Deerfield Lane", "CITY": "Middlebury", "STATE": "VT", "ZIP": "05753", "Lon": -73.152619, "Lat": 43.99835341, "GRTYPE": "Middle", "Sector": "Public", "schData_avgconc": null, "schData_geom": null }, "geometry": { "type": "Point", "coordinates": [ -73.15261740177543, 43.998351199582572 ] } },
{ "type": "Feature", "properties": { "OBJECTID": 139, "ORGID": "PS182", "ORGANIZATI": "Middletown Springs Elem School", "ADDRESS": "15 School House Road", "CITY": "Middletown Spr", "STATE": "VT", "ZIP": "05757", "Lon": -73.12041849000001, "Lat": 43.48398654, "GRTYPE": "Elementary", "Sector": "Public", "schData_avgconc": null, "schData_geom": null }, "geometry": { "type": "Point", "coordinates": [ -73.120417984014622, 43.483985350967195 ] } },
{ "type": "Feature", "properties": { "OBJECTID": 140, "ORGID": "PS183", "ORGANIZATI": "Mill River US #40", "ADDRESS": "2321 Middle Road", "CITY": "North Clarendon", "STATE": "VT", "ZIP": "05759", "Lon": -72.97152002, "Lat": 43.54702782, "GRTYPE": "Secondary", "Sector": "Public", "schData_avgconc": null, "schData_geom": null }, "geometry": { "type": "Point", "coordinates": [ -72.971519597377508, 43.54702642631915 ] } },
{ "type": "Feature", "properties": { "OBJECTID": 141, "ORGID": "PS184", "ORGANIZATI": "Millers Run School US #37", "ADDRESS": "3249 Vt Route 122", "CITY": "Sheffield", "STATE": "VT", "ZIP": "05866", "Lon": -72.11921494000001, "Lat": 44.60270843, "GRTYPE": "Elementary", "Sector": "Public", "schData_avgconc": null, "schData_geom": null }, "geometry": { "type": "Point", "coordinates": [ -72.119215663124521, 44.602706481197416 ] } },
{ "type": "Feature", "properties": { "OBJECTID": 142, "ORGID": "PS140", "ORGANIZATI": "Milton Elementary School", "ADDRESS": "42 Herrick Avenue", "CITY": "Milton", "STATE": "VT", "ZIP": "05468", "Lon": -73.10986773, "Lat": 44.63252648, "GRTYPE": "Elementary", "Sector": "Public", "schData_avgconc": null, "schData_geom": null }, "geometry": { "type": "Point", "coordinates": [ -73.109867783411133, 44.632523666786746 ] } },
{ "type": "Feature", "properties": { "OBJECTID": 143, "ORGID": "PS186", "ORGANIZATI": "Milton High School", "ADDRESS": "17 Rebecca Lander Drive", "CITY": "Milton", "STATE": "VT", "ZIP": "05468", "Lon": -73.11892499, "Lat": 44.62910158, "GRTYPE": "Secondary", "Sector": "Public", "schData_avgconc": null, "schData_geom": null }, "geometry": { "type": "Point", "coordinates": [ -73.118925085127657, 44.629098712357468 ] } },
{ "type": "Feature", "properties": { "OBJECTID": 144, "ORGID": "PS187", "ORGANIZATI": "Missisquoi Valley UHS #7", "ADDRESS": "100 Thunder Bird Drive", "CITY": "Swanton", "STATE": "VT", "ZIP": "05488", "Lon": -73.10182379, "Lat": 44.92786282, "GRTYPE": "Secondary", "Sector": "Public", "schData_avgconc": null, "schData_geom": null }, "geometry": { "type": "Point", "coordinates": [ -73.101824153557757, 44.927860343138157 ] } },
{ "type": "Feature", "properties": { "OBJECTID": 145, "ORGID": "PS188", "ORGANIZATI": "Molly Stark School", "ADDRESS": "181 Orchard Street", "CITY": "Bennington", "STATE": "VT", "ZIP": "05201", "Lon": -73.20246124000001, "Lat": 42.89823914, "GRTYPE": "Elementary", "Sector": "Public", "schData_avgconc": null, "schData_geom": null }, "geometry": { "type": "Point", "coordinates": [ -73.202461192904892, 42.898238791241432 ] } },
{ "type": "Feature", "properties": { "OBJECTID": 146, "ORGID": "PS189", "ORGANIZATI": "Monkton Central School", "ADDRESS": "1036 Monkton Road", "CITY": "No Ferrisburg", "STATE": "VT", "ZIP": "05473", "Lon": -73.13871678, "Lat": 44.24424149, "GRTYPE": "Elementary", "Sector": "Public", "schData_avgconc": null, "schData_geom": null }, "geometry": { "type": "Point", "coordinates": [ -73.138716285635283, 44.244239300990486 ] } },
{ "type": "Feature", "properties": { "OBJECTID": 147, "ORGID": "PS190", "ORGANIZATI": "Montgomery Elementary School", "ADDRESS": "249 School Drive", "CITY": "Montgomery Ctr", "STATE": "VT", "ZIP": "05471", "Lon": -72.61623998, "Lat": 44.88643403, "GRTYPE": "Elementary", "Sector": "Public", "schData_avgconc": null, "schData_geom": null }, "geometry": { "type": "Point", "coordinates": [ -72.61624028434322, 44.886432080725349 ] } },
{ "type": "Feature", "properties": { "OBJECTID": 148, "ORGID": "PS191", "ORGANIZATI": "Montpelier High School", "ADDRESS": "5 High School Drive", "CITY": "Montpelier", "STATE": "VT", "ZIP": "05602", "Lon": -72.58698022, "Lat": 44.26056192, "GRTYPE": "Secondary", "Sector": "Public", "schData_avgconc": null, "schData_geom": null }, "geometry": { "type": "Point", "coordinates": [ -72.586979771433974, 44.260560423649714 ] } },
{ "type": "Feature", "properties": { "OBJECTID": 149, "ORGID": "PS192", "ORGANIZATI": "Monument Elementary School", "ADDRESS": "66 Main Street", "CITY": "Bennington", "STATE": "VT", "ZIP": "05201", "Lon": -73.21075017, "Lat": 42.88490728, "GRTYPE": "Elementary", "Sector": "Public", "schData_avgconc": null, "schData_geom": null }, "geometry": { "type": "Point", "coordinates": [ -73.210750100191603, 42.884906940825999 ] } },
{ "type": "Feature", "properties": { "OBJECTID": 150, "ORGID": "PS193", "ORGANIZATI": "Moretown Elementary School", "ADDRESS": "940 Route 100B", "CITY": "Moretown", "STATE": "VT", "ZIP": "05660", "Lon": -72.76261474, "Lat": 44.24754137, "GRTYPE": "Elementary", "Sector": "Public", "schData_avgconc": null, "schData_geom": null }, "geometry": { "type": "Point", "coordinates": [ -72.762613975880527, 44.247539719425923 ] } },
{ "type": "Feature", "properties": { "OBJECTID": 151, "ORGID": "PS194", "ORGANIZATI": "Morristown Elem Schools", "ADDRESS": "548 Park Street", "CITY": "Morrisville", "STATE": "VT", "ZIP": "05661", "Lon": -72.58531901000001, "Lat": 44.56386017, "GRTYPE": "Elementary", "Sector": "Public", "schData_avgconc": null, "schData_geom": null }, "geometry": { "type": "Point", "coordinates": [ -72.585318582770441, 44.563858716107013 ] } },
{ "type": "Feature", "properties": { "OBJECTID": 152, "ORGID": "PS195", "ORGANIZATI": "Mt Abraham UHS #28", "ADDRESS": "220 Airport Drive", "CITY": "Bristol", "STATE": "VT", "ZIP": "05443", "Lon": -73.09396414, "Lat": 44.1356078, "GRTYPE": "Secondary", "Sector": "Public", "schData_avgconc": null, "schData_geom": null }, "geometry": { "type": "Point", "coordinates": [ -73.093963074778728, 44.135605736352495 ] } },
{ "type": "Feature", "properties": { "OBJECTID": 153, "ORGID": "PS196", "ORGANIZATI": "Mt Anthony Sr UHS #14", "ADDRESS": "301 Park Street Extension", "CITY": "Bennington", "STATE": "VT", "ZIP": "05201", "Lon": -73.19141249, "Lat": 42.88572453, "GRTYPE": "Secondary", "Sector": "Public", "schData_avgconc": null, "schData_geom": null }, "geometry": { "type": "Point", "coordinates": [ -73.191412437440292, 42.885724183052695 ] } },
{ "type": "Feature", "properties": { "OBJECTID": 154, "ORGID": "PS197", "ORGANIZATI": "Mt Anthony Union Middle School", "ADDRESS": "747 East Road", "CITY": "Bennington", "STATE": "VT", "ZIP": "05201", "Lon": -73.18774748, "Lat": 42.90544236, "GRTYPE": "Middle", "Sector": "Public", "schData_avgconc": null, "schData_geom": null }, "geometry": { "type": "Point", "coordinates": [ -73.187747456821612, 42.905442002169792 ] } },
{ "type": "Feature", "properties": { "OBJECTID": 155, "ORGID": "PS198", "ORGANIZATI": "Mt Holly School", "ADDRESS": "150 School Street", "CITY": "Mount Holly", "STATE": "VT", "ZIP": "05758", "Lon": -72.82305519000001, "Lat": 43.44584953, "GRTYPE": "Elementary", "Sector": "Public", "schData_avgconc": null, "schData_geom": null }, "geometry": { "type": "Point", "coordinates": [ -72.823054865566661, 43.445848218110172 ] } },
{ "type": "Feature", "properties": { "OBJECTID": 156, "ORGID": "PS199", "ORGANIZATI": "Mt Mansfield US #17", "ADDRESS": "211 Browns Trace Rd", "CITY": "Jericho", "STATE": "VT", "ZIP": "05465", "Lon": -72.96204798, "Lat": 44.48618448, "GRTYPE": "Secondary", "Sector": "Public", "schData_avgconc": null, "schData_geom": null }, "geometry": { "type": "Point", "coordinates": [ -72.962047192269637, 44.48618287638395 ] } },
{ "type": "Feature", "properties": { "OBJECTID": 157, "ORGID": "PS200", "ORGANIZATI": "Neshobe School", "ADDRESS": "17 Neshobe Circle", "CITY": "Brandon", "STATE": "VT", "ZIP": "05733", "Lon": -73.05509375, "Lat": 43.82639283, "GRTYPE": "Elementary", "Sector": "Public", "schData_avgconc": null, "schData_geom": null }, "geometry": { "type": "Point", "coordinates": [ -73.055092502727803, 43.826391034405077 ] } },
{ "type": "Feature", "properties": { "OBJECTID": 158, "ORGID": "PS201", "ORGANIZATI": "Newark School", "ADDRESS": "1448 Newark Street", "CITY": "Newark", "STATE": "VT", "ZIP": "05871", "Lon": -71.95072515, "Lat": 44.69018895, "GRTYPE": "Elementary", "Sector": "Public", "schData_avgconc": null, "schData_geom": null }, "geometry": { "type": "Point", "coordinates": [ -71.950726148744394, 44.690187109680764 ] } },
{ "type": "Feature", "properties": { "OBJECTID": 159, "ORGID": "PS408", "ORGANIZATI": "Newbrook Elementary School", "ADDRESS": "14 School Road", "CITY": "Newfane", "STATE": "VT", "ZIP": "05345", "Lon": -72.65005493, "Lat": 42.95993423, "GRTYPE": "Elementary", "Sector": "Public", "schData_avgconc": null, "schData_geom": null }, "geometry": { "type": "Point", "coordinates": [ -72.650055409104397, 42.959933419785372 ] } },
{ "type": "Feature", "properties": { "OBJECTID": 160, "ORGID": "PS202", "ORGANIZATI": "Newbury Elementary School", "ADDRESS": "214 Pulaski Street", "CITY": "Newbury", "STATE": "VT", "ZIP": "05051", "Lon": -72.06006721, "Lat": 44.0790802, "GRTYPE": "Elementary", "Sector": "Public", "schData_avgconc": null, "schData_geom": null }, "geometry": { "type": "Point", "coordinates": [ -72.060066638047005, 44.079078018019054 ] } },
{ "type": "Feature", "properties": { "OBJECTID": 161, "ORGID": "PS204", "ORGANIZATI": "Newport City Elem Schools", "ADDRESS": "166 Sias Avenue", "CITY": "Newport", "STATE": "VT", "ZIP": "05855", "Lon": -72.19173288, "Lat": 44.94494763, "GRTYPE": "Elementary", "Sector": "Public", "schData_avgconc": "11.4875000000000000", "schData_geom": "01010000205991010018B0C69050002041403FF5AE1B951041" }, "geometry": { "type": "Point", "coordinates": [ -72.19173308284671, 44.94494577649764 ] } },
{ "type": "Feature", "properties": { "OBJECTID": 162, "ORGID": "PS205", "ORGANIZATI": "Newport Town School", "ADDRESS": "4212 Vt Route 105", "CITY": "Newport Center", "STATE": "VT", "ZIP": "05857", "Lon": -72.30639415, "Lat": 44.95164501, "GRTYPE": "Elementary", "Sector": "Public", "schData_avgconc": null, "schData_geom": null }, "geometry": { "type": "Point", "coordinates": [ -72.306394449412807, 44.951643150047417 ] } },
{ "type": "Feature", "properties": { "OBJECTID": 163, "ORGID": "PS206", "ORGANIZATI": "Newton School", "ADDRESS": "243 Vt Rte 132", "CITY": "South Strafford", "STATE": "VT", "ZIP": "05070", "Lon": -72.36565478, "Lat": 43.8350013, "GRTYPE": "Elementary", "Sector": "Public", "schData_avgconc": null, "schData_geom": null }, "geometry": { "type": "Point", "coordinates": [ -72.365653489702225, 43.834999287711504 ] } },
{ "type": "Feature", "properties": { "OBJECTID": 164, "ORGID": "PS208", "ORGANIZATI": "North Country UHS #22A", "ADDRESS": "209 Veterans Ave", "CITY": "Newport", "STATE": "VT", "ZIP": "05855", "Lon": -72.2032804, "Lat": 44.94647579, "GRTYPE": "Secondary", "Sector": "Public", "schData_avgconc": null, "schData_geom": null }, "geometry": { "type": "Point", "coordinates": [ -72.203280605466659, 44.946473941384752 ] } },
{ "type": "Feature", "properties": { "OBJECTID": 165, "ORGID": "PS364", "ORGANIZATI": "North Country Union JR High #22B", "ADDRESS": "57 Junior High Drive", "CITY": "Derby", "STATE": "VT", "ZIP": "05829", "Lon": -72.13136721, "Lat": 44.94925929, "GRTYPE": "Middle", "Sector": "Public", "schData_avgconc": null, "schData_geom": null }, "geometry": { "type": "Point", "coordinates": [ -72.131367398892436, 44.949257416948896 ] } },
{ "type": "Feature", "properties": { "OBJECTID": 166, "ORGID": "PS209", "ORGANIZATI": "North Hero School", "ADDRESS": "6441 Us Route 2", "CITY": "North Hero", "STATE": "VT", "ZIP": "05474", "Lon": -73.26338959, "Lat": 44.85087585, "GRTYPE": "Elementary", "Sector": "Public", "schData_avgconc": null, "schData_geom": null }, "geometry": { "type": "Point", "coordinates": [ -73.263390198682046, 44.850872029423577 ] } },
{ "type": "Feature", "properties": { "OBJECTID": 167, "ORGID": "PS255", "ORGANIZATI": "Northeast Primary School", "ADDRESS": "117 Temple Street", "CITY": "Rutland", "STATE": "VT", "ZIP": "05701", "Lon": -72.96191269000001, "Lat": 43.61796129, "GRTYPE": "Elementary", "Sector": "Public", "schData_avgconc": null, "schData_geom": null }, "geometry": { "type": "Point", "coordinates": [ -72.961912085429645, 43.617959788554607 ] } },
{ "type": "Feature", "properties": { "OBJECTID": 168, "ORGID": "PS210", "ORGANIZATI": "Northfield Elementary School", "ADDRESS": "10 Cross Street", "CITY": "Northfield", "STATE": "VT", "ZIP": "05663", "Lon": -72.66207238, "Lat": 44.15454961, "GRTYPE": "Elementary", "Sector": "Public", "schData_avgconc": null, "schData_geom": null }, "geometry": { "type": "Point", "coordinates": [ -72.662071614911227, 44.154548035188796 ] } },
{ "type": "Feature", "properties": { "OBJECTID": 169, "ORGID": "PS211", "ORGANIZATI": "Northfield Middle/High School", "ADDRESS": "37 Cross Street, Unit 2+3", "CITY": "Northfield", "STATE": "VT", "ZIP": "05663", "Lon": -72.66108797, "Lat": 44.15371457, "GRTYPE": "Secondary", "Sector": "Public", "schData_avgconc": null, "schData_geom": null }, "geometry": { "type": "Point", "coordinates": [ -72.661087204887821, 44.153712989258992 ] } },
{ "type": "Feature", "properties": { "OBJECTID": 170, "ORGID": "PS256", "ORGANIZATI": "Northwest Primary School", "ADDRESS": "80 Pierpoint Avenue", "CITY": "Rutland", "STATE": "VT", "ZIP": "05701", "Lon": -72.99141693, "Lat": 43.61276245, "GRTYPE": "Elementary", "Sector": "Public", "schData_avgconc": null, "schData_geom": null }, "geometry": { "type": "Point", "coordinates": [ -72.99141634239264, 43.612760957831625 ] } },
{ "type": "Feature", "properties": { "OBJECTID": 171, "ORGID": "PS383", "ORGANIZATI": "Oak Grove School", "ADDRESS": "15 Moreland Avenue", "CITY": "Brattleboro", "STATE": "VT", "ZIP": "05301", "Lon": -72.55802, "Lat": 42.84008, "GRTYPE": "Elementary", "Sector": "Public", "schData_avgconc": "13.9458333333333333", "schData_geom": "010100002059910100001838A5633A1E4100846D855072E240" }, "geometry": { "type": "Point", "coordinates": [ -72.558019918358852, 42.840079725506087 ] } },
{ "type": "Feature", "properties": { "OBJECTID": 172, "ORGID": "PS215", "ORGANIZATI": "Orange Center School", "ADDRESS": "357 Us Route 302", "CITY": "East Barre", "STATE": "VT", "ZIP": "05649", "Lon": -72.40360054, "Lat": 44.1490322, "GRTYPE": "Elementary", "Sector": "Public", "schData_avgconc": null, "schData_geom": null }, "geometry": { "type": "Point", "coordinates": [ -72.403599776312433, 44.149030401027638 ] } },
{ "type": "Feature", "properties": { "OBJECTID": 173, "ORGID": "PS216", "ORGANIZATI": "Orchard School", "ADDRESS": "2 Baldwin Avenue", "CITY": "So Burlington", "STATE": "VT", "ZIP": "05403-7316", "Lon": -73.20768205, "Lat": 44.43976113, "GRTYPE": "Elementary", "Sector": "Public", "schData_avgconc": null, "schData_geom": null }, "geometry": { "type": "Point", "coordinates": [ -73.207682208357923, 44.439758788503696 ] } },
{ "type": "Feature", "properties": { "OBJECTID": 174, "ORGID": "PS217", "ORGANIZATI": "Orleans Elementary School", "ADDRESS": "53 School Street", "CITY": "Orleans", "STATE": "VT", "ZIP": "05860", "Lon": -72.19683422, "Lat": 44.81006209, "GRTYPE": "Elementary", "Sector": "Public", "schData_avgconc": null, "schData_geom": null }, "geometry": { "type": "Point", "coordinates": [ -72.196834381022867, 44.810060478062134 ] } },
{ "type": "Feature", "properties": { "OBJECTID": 175, "ORGID": "PS218", "ORGANIZATI": "Orwell Village School", "ADDRESS": "494 Main Street", "CITY": "Orwell", "STATE": "VT", "ZIP": "05760", "Lon": -73.29908239, "Lat": 43.8045275, "GRTYPE": "Elementary", "Sector": "Public", "schData_avgconc": null, "schData_geom": null }, "geometry": { "type": "Point", "coordinates": [ -73.299081108354457, 43.804525552319099 ] } },
{ "type": "Feature", "properties": { "OBJECTID": 176, "ORGID": "PS380", "ORGANIZATI": "Ottauquechee School", "ADDRESS": "304 Dody Lane", "CITY": "Quechee", "STATE": "VT", "ZIP": "05059", "Lon": -72.41678695, "Lat": 43.64947158, "GRTYPE": "Elementary", "Sector": "Public", "schData_avgconc": null, "schData_geom": null }, "geometry": { "type": "Point", "coordinates": [ -72.416786071775533, 43.649469787675706 ] } },
{ "type": "Feature", "properties": { "OBJECTID": 177, "ORGID": "PS219", "ORGANIZATI": "Otter Valley UHS #8", "ADDRESS": "2997 Franklin Street", "CITY": "Brandon", "STATE": "VT", "ZIP": "05733", "Lon": -73.05154357000001, "Lat": 43.76709133, "GRTYPE": "Secondary", "Sector": "Public", "schData_avgconc": null, "schData_geom": null }, "geometry": { "type": "Point", "coordinates": [ -73.051542518935776, 43.767089570265448 ] } },
{ "type": "Feature", "properties": { "OBJECTID": 178, "ORGID": "PS220", "ORGANIZATI": "Oxbow UHS #30", "ADDRESS": "36 Oxbow Drive", "CITY": "Bradford", "STATE": "VT", "ZIP": "05033", "Lon": -72.11379667, "Lat": 44.00791064, "GRTYPE": "Secondary", "Sector": "Public", "schData_avgconc": null, "schData_geom": null }, "geometry": { "type": "Point", "coordinates": [ -72.113795498280538, 44.007908328190297 ] } },
{ "type": "Feature", "properties": { "OBJECTID": 179, "ORGID": "PS223", "ORGANIZATI": "Peacham Elementary School", "ADDRESS": "340 Bailey Hazen Road", "CITY": "Peacham", "STATE": "VT", "ZIP": "05862", "Lon": -72.16651956, "Lat": 44.3260184, "GRTYPE": "Elementary", "Sector": "Public", "schData_avgconc": null, "schData_geom": null }, "geometry": { "type": "Point", "coordinates": [ -72.166519624884643, 44.326016402703338 ] } },
{ "type": "Feature", "properties": { "OBJECTID": 180, "ORGID": "PS224", "ORGANIZATI": "Peoples Academy", "ADDRESS": "202 Copley Avenue", "CITY": "Morrisville", "STATE": "VT", "ZIP": "05661", "Lon": -72.59031458, "Lat": 44.56240529, "GRTYPE": "Secondary", "Sector": "Public", "schData_avgconc": null, "schData_geom": null }, "geometry": { "type": "Point", "coordinates": [ -72.590314136952756, 44.562403842767822 ] } },
{ "type": "Feature", "properties": { "OBJECTID": 181, "ORGID": "PS394", "ORGANIZATI": "Peoples Academy Middle School", "ADDRESS": "202 Copley Avenue", "CITY": "Morrisville", "STATE": "VT", "ZIP": "05661", "Lon": -72.59019411, "Lat": 44.56277769, "GRTYPE": "Middle", "Sector": "Public", "schData_avgconc": null, "schData_geom": null }, "geometry": { "type": "Point", "coordinates": [ -72.590193666621801, 44.562776236673301 ] } },
{ "type": "Feature", "properties": { "OBJECTID": 182, "ORGID": "PS226", "ORGANIZATI": "Pomfret School", "ADDRESS": "1071 Pomfret Rd", "CITY": "So Pomfret", "STATE": "VT", "ZIP": "05067", "Lon": -72.52885907, "Lat": 43.6534622, "GRTYPE": "Elementary", "Sector": "Public", "schData_avgconc": null, "schData_geom": null }, "geometry": { "type": "Point", "coordinates": [ -72.528858250746083, 43.65346049754325 ] } },
{ "type": "Feature", "properties": { "OBJECTID": 183, "ORGID": "PS227", "ORGANIZATI": "Porters Point School", "ADDRESS": "490 Porters Point Rd", "CITY": "Colchester", "STATE": "VT", "ZIP": "05446", "Lon": -73.25555587, "Lat": 44.54105718, "GRTYPE": "Elementary", "Sector": "Public", "schData_avgconc": null, "schData_geom": null }, "geometry": { "type": "Point", "coordinates": [ -73.255556486041314, 44.541054252110115 ] } },
{ "type": "Feature", "properties": { "OBJECTID": 184, "ORGID": "PS229", "ORGANIZATI": "Poultney Elementary School", "ADDRESS": "96 School Circle", "CITY": "Poultney", "STATE": "VT", "ZIP": "05764", "Lon": -73.23767405, "Lat": 43.52457588, "GRTYPE": "Elementary", "Sector": "Public", "schData_avgconc": "52.7343750000000000", "schData_geom": "01010000205991010080CF417AB6E01A4100B1660538DAFB40" }, "geometry": { "type": "Point", "coordinates": [ -73.237673210233453, 43.524574688758449 ] } },
{ "type": "Feature", "properties": { "OBJECTID": 185, "ORGID": "PS230", "ORGANIZATI": "Poultney High School", "ADDRESS": "154 East Main Street", "CITY": "Poultney", "STATE": "VT", "ZIP": "05764", "Lon": -73.22996031, "Lat": 43.51656124, "GRTYPE": "Secondary", "Sector": "Public", "schData_avgconc": "33.0741935483870968", "schData_geom": "010100002059910100405E469555EA1A41008B974239A2FB40" }, "geometry": { "type": "Point", "coordinates": [ -73.229959501875285, 43.516560062971884 ] } },
{ "type": "Feature", "properties": { "OBJECTID": 186, "ORGID": "PS231", "ORGANIZATI": "Pownal Elementary School", "ADDRESS": "94 Schoolhouse Road", "CITY": "Pownal", "STATE": "VT", "ZIP": "05261", "Lon": -73.21793866, "Lat": 42.80057676, "GRTYPE": "Elementary", "Sector": "Public", "schData_avgconc": null, "schData_geom": null }, "geometry": { "type": "Point", "coordinates": [ -73.217938480365746, 42.800576458651932 ] } },
{ "type": "Feature", "properties": { "OBJECTID": 187, "ORGID": "PS232", "ORGANIZATI": "Proctor Elementary School", "ADDRESS": "14 School Street", "CITY": "Proctor", "STATE": "VT", "ZIP": "05765", "Lon": -73.0386204, "Lat": 43.6618934, "GRTYPE": "Elementary", "Sector": "Public", "schData_avgconc": "13.9222222222222222", "schData_geom": "010100002059910100A0B41B09B1DD1B41008CEF02028CFF40" }, "geometry": { "type": "Point", "coordinates": [ -73.038619632800746, 43.661891823736291 ] } },
{ "type": "Feature", "properties": { "OBJECTID": 188, "ORGID": "PS233", "ORGANIZATI": "Proctor Jr/Sr High School", "ADDRESS": "4 Park Street", "CITY": "Proctor", "STATE": "VT", "ZIP": "05765", "Lon": -73.02921588, "Lat": 43.65500339, "GRTYPE": "Secondary", "Sector": "Public", "schData_avgconc": null, "schData_geom": null }, "geometry": { "type": "Point", "coordinates": [ -73.029215134444996, 43.655001821107767 ] } },
{ "type": "Feature", "properties": { "OBJECTID": 189, "ORGID": "PS234", "ORGANIZATI": "Putney Central School", "ADDRESS": "182 Westminster Road", "CITY": "Putney", "STATE": "VT", "ZIP": "05346", "Lon": -72.52823462000001, "Lat": 42.98622134, "GRTYPE": "Elementary", "Sector": "Public", "schData_avgconc": "4.9545454545454545", "schData_geom": "010100002059910100507B682885601E4100E3B5E3755FEA40" }, "geometry": { "type": "Point", "coordinates": [ -72.528235100053138, 42.986220297266733 ] } },
{ "type": "Feature", "properties": { "OBJECTID": 190, "ORGID": "PS359", "ORGANIZATI": "Randolph Elementary School", "ADDRESS": "40 Ayers Brook Road", "CITY": "Randolph", "STATE": "VT", "ZIP": "05060", "Lon": -72.66045617, "Lat": 43.93388378, "GRTYPE": "Elementary", "Sector": "Public", "schData_avgconc": null, "schData_geom": null }, "geometry": { "type": "Point", "coordinates": [ -72.660455200583925, 43.933882157544666 ] } },
{ "type": "Feature", "properties": { "OBJECTID": 191, "ORGID": "PS237", "ORGANIZATI": "Randolph UHS #2", "ADDRESS": "15 Forest Street", "CITY": "Randolph", "STATE": "VT", "ZIP": "05060", "Lon": -72.66002769000001, "Lat": 43.93071984, "GRTYPE": "Secondary", "Sector": "Public", "schData_avgconc": null, "schData_geom": null }, "geometry": { "type": "Point", "coordinates": [ -72.660026723183307, 43.930718210138885 ] } },
{ "type": "Feature", "properties": { "OBJECTID": 192, "ORGID": "PS239", "ORGANIZATI": "Reading Elementary School", "ADDRESS": "632 Vt Rte 106", "CITY": "Reading", "STATE": "VT", "ZIP": "05062", "Lon": -72.53650886, "Lat": 43.45312505, "GRTYPE": "Elementary", "Sector": "Public", "schData_avgconc": null, "schData_geom": null }, "geometry": { "type": "Point", "coordinates": [ -72.536508374760572, 43.453123484362159 ] } },
{ "type": "Feature", "properties": { "OBJECTID": 193, "ORGID": "PS240", "ORGANIZATI": "Readsboro Elementary School", "ADDRESS": "301 Phelps Lane", "CITY": "Readsboro", "STATE": "VT", "ZIP": "05350", "Lon": -72.9404752, "Lat": 42.77189568, "GRTYPE": "Elementary", "Sector": "Public", "schData_avgconc": null, "schData_geom": null }, "geometry": { "type": "Point", "coordinates": [ -72.940475287624096, 42.771895361926575 ] } },
{ "type": "Feature", "properties": { "OBJECTID": 194, "ORGID": "PS241", "ORGANIZATI": "Richford Elementary School", "ADDRESS": "1 Elementary School Road", "CITY": "Richford", "STATE": "VT", "ZIP": "05476", "Lon": -72.67855535, "Lat": 44.98357582, "GRTYPE": "Elementary", "Sector": "Public", "schData_avgconc": "5.9333333333333333", "schData_geom": "010100002059910100F08511D477A81D41A057D05AB3D71041" }, "geometry": { "type": "Point", "coordinates": [ -72.678556231636179, 44.983573547034233 ] } },
{ "type": "Feature", "properties": { "OBJECTID": 195, "ORGID": "PS242", "ORGANIZATI": "Richford Jr/Sr High School", "ADDRESS": "1 Corliss Heights", "CITY": "Richford", "STATE": "VT", "ZIP": "05476", "Lon": -72.67008593, "Lat": 44.99502461, "GRTYPE": "Secondary", "Sector": "Public", "schData_avgconc": null, "schData_geom": null }, "geometry": { "type": "Point", "coordinates": [ -72.670086868914026, 44.995022327669311 ] } },
{ "type": "Feature", "properties": { "OBJECTID": 196, "ORGID": "PS243", "ORGANIZATI": "Richmond Elementary School", "ADDRESS": "125 School Street", "CITY": "Richmond", "STATE": "VT", "ZIP": "05477", "Lon": -72.99367281000001, "Lat": 44.41243988, "GRTYPE": "Elementary", "Sector": "Public", "schData_avgconc": null, "schData_geom": null }, "geometry": { "type": "Point", "coordinates": [ -72.993672117580473, 44.412438160012712 ] } },
{ "type": "Feature", "properties": { "OBJECTID": 197, "ORGID": "PS271", "ORGANIZATI": "Rick Marcotte Central School", "ADDRESS": "10 Market Street", "CITY": "So Burlington", "STATE": "VT", "ZIP": "05403-5779", "Lon": -73.17689054, "Lat": 44.46729807, "GRTYPE": "Elementary", "Sector": "Public", "schData_avgconc": "5.6000000000000000", "schData_geom": "01010000205991010080EAA708EC3A1B41C0BED04011B50A41" }, "geometry": { "type": "Point", "coordinates": [ -73.176890636551903, 44.467295828310668 ] } },
{ "type": "Feature", "properties": { "OBJECTID": 198, "ORGID": "PS244", "ORGANIZATI": "Ripton Elementary School", "ADDRESS": "753 Ripton Lincoln Road", "CITY": "Ripton", "STATE": "VT", "ZIP": "05766", "Lon": -73.03822626, "Lat": 43.98520077, "GRTYPE": "Elementary", "Sector": "Public", "schData_avgconc": null, "schData_geom": null }, "geometry": { "type": "Point", "coordinates": [ -73.038224444604239, 43.98519893655984 ] } },
{ "type": "Feature", "properties": { "OBJECTID": 199, "ORGID": "PS245", "ORGANIZATI": "Riverside Middle School", "ADDRESS": "13 Fairground Road", "CITY": "Springfield", "STATE": "VT", "ZIP": "05156", "Lon": -72.49685669, "Lat": 43.30411148, "GRTYPE": "Middle", "Sector": "Public", "schData_avgconc": "7.3240000000000000", "schData_geom": "010100002059910100E00890207C881E41804AD39DE3CEF540" }, "geometry": { "type": "Point", "coordinates": [ -72.496856779433344, 43.304109971442806 ] } },
{ "type": "Feature", "properties": { "OBJECTID": 200, "ORGID": "PS246", "ORGANIZATI": "Robinson School", "ADDRESS": "41 Parsonage Road", "CITY": "Starksboro", "STATE": "VT", "ZIP": "05487", "Lon": -73.05748258, "Lat": 44.22362365, "GRTYPE": "Elementary", "Sector": "Public", "schData_avgconc": null, "schData_geom": null }, "geometry": { "type": "Point", "coordinates": [ -73.057481905091976, 44.223621640966982 ] } },
{ "type": "Feature", "properties": { "OBJECTID": 201, "ORGID": "PS247", "ORGANIZATI": "Rochester School", "ADDRESS": "222 South Main Street", "CITY": "Rochester", "STATE": "VT", "ZIP": "05767-9679", "Lon": -72.80950554, "Lat": 43.87193558, "GRTYPE": "K-12", "Sector": "Public", "schData_avgconc": "4.6200000000000000", "schData_geom": "010100002059910100A04EFE27CDFF1C4180F9836D519C0241" }, "geometry": { "type": "Point", "coordinates": [ -72.809504515751513, 43.871933981344228 ] } },
{ "type": "Feature", "properties": { "OBJECTID": 202, "ORGID": "PS250", "ORGANIZATI": "Roxbury Village School", "ADDRESS": "1559 Roxbury Road", "CITY": "Roxbury", "STATE": "VT", "ZIP": "05669", "Lon": -72.73292872, "Lat": 44.09240263, "GRTYPE": "Elementary", "Sector": "Public", "schData_avgconc": null, "schData_geom": null }, "geometry": { "type": "Point", "coordinates": [ -72.732927768207404, 44.092401074230906 ] } },
{ "type": "Feature", "properties": { "OBJECTID": 203, "ORGID": "PS181", "ORGANIZATI": "Rumney Memorial School", "ADDRESS": "433 Shady Rill Road", "CITY": "Middlesex", "STATE": "VT", "ZIP": "05602", "Lon": -72.60272672000001, "Lat": 44.35096488, "GRTYPE": "Elementary", "Sector": "Public", "schData_avgconc": null, "schData_geom": null }, "geometry": { "type": "Point", "coordinates": [ -72.602726227255417, 44.350963415554851 ] } },
{ "type": "Feature", "properties": { "OBJECTID": 204, "ORGID": "PS253", "ORGANIZATI": "Rutland High School", "ADDRESS": "22 Stratton Road", "CITY": "Rutland", "STATE": "VT", "ZIP": "05701", "Lon": -72.95461565, "Lat": 43.61762657, "GRTYPE": "Secondary", "Sector": "Public", "schData_avgconc": null, "schData_geom": null }, "geometry": { "type": "Point", "coordinates": [ -72.954615049927128, 43.617625063728639 ] } },
{ "type": "Feature", "properties": { "OBJECTID": 205, "ORGID": "PS382", "ORGANIZATI": "Rutland Intermediate School", "ADDRESS": "63-65 Library Avenue", "CITY": "Rutland", "STATE": "VT", "ZIP": "05701", "Lon": -72.98007142, "Lat": 43.61318693, "GRTYPE": "Elementary", "Sector": "Public", "schData_avgconc": null, "schData_geom": null }, "geometry": { "type": "Point", "coordinates": [ -72.980070824673106, 43.613185433641171 ] } },
{ "type": "Feature", "properties": { "OBJECTID": 206, "ORGID": "PS365", "ORGANIZATI": "Rutland Middle School", "ADDRESS": "63-65 Library Ave", "CITY": "Rutland", "STATE": "VT", "ZIP": "05701", "Lon": -72.98099195, "Lat": 43.61297605, "GRTYPE": "Middle", "Sector": "Public", "schData_avgconc": null, "schData_geom": null }, "geometry": { "type": "Point", "coordinates": [ -72.980991355990071, 43.612974556583161 ] } },
{ "type": "Feature", "properties": { "OBJECTID": 207, "ORGID": "PS258", "ORGANIZATI": "Rutland Town Elem School", "ADDRESS": "1612 Post Road", "CITY": "Rutland Town", "STATE": "VT", "ZIP": "05701", "Lon": -72.96331578, "Lat": 43.63856421, "GRTYPE": "Elementary", "Sector": "Public", "schData_avgconc": "83.0933333333333333", "schData_geom": "01010000205991010000F79AB45E3C1C4100E67BC8B8E7FE40" }, "geometry": { "type": "Point", "coordinates": [ -72.963315121989353, 43.638562681058367 ] } },
{ "type": "Feature", "properties": { "OBJECTID": 208, "ORGID": "PS259", "ORGANIZATI": "Salisbury Community School", "ADDRESS": "286 Kelley Cross Road", "CITY": "Salisbury", "STATE": "VT", "ZIP": "05769", "Lon": -73.11791992000001, "Lat": 43.91971207, "GRTYPE": "Elementary", "Sector": "Public", "schData_avgconc": null, "schData_geom": null }, "geometry": { "type": "Point", "coordinates": [ -73.117918447626636, 43.919710065619441 ] } },
{ "type": "Feature", "properties": { "OBJECTID": 209, "ORGID": "PS106", "ORGANIZATI": "Samuel Morey Elementary School", "ADDRESS": "214 School St", "CITY": "Fairlee", "STATE": "VT", "ZIP": "05045", "Lon": -72.14602288, "Lat": 43.90798994, "GRTYPE": "Elementary", "Sector": "Public", "schData_avgconc": null, "schData_geom": null }, "geometry": { "type": "Point", "coordinates": [ -72.14602150268172, 43.907987668721233 ] } },
{ "type": "Feature", "properties": { "OBJECTID": 210, "ORGID": "PS260", "ORGANIZATI": "Saxtons River Elem School", "ADDRESS": "School Street", "CITY": "Saxtons River", "STATE": "VT", "ZIP": "05154", "Lon": -72.50949097, "Lat": 43.14039612, "GRTYPE": "Elementary", "Sector": "Public", "schData_avgconc": null, "schData_geom": null }, "geometry": { "type": "Point", "coordinates": [ -72.509491383755261, 43.140394799317299 ] } },
{ "type": "Feature", "properties": { "OBJECTID": 211, "ORGID": "PS262", "ORGANIZATI": "Shaftsbury Elem School", "ADDRESS": "150 Buck Hill Road", "CITY": "Shaftsbury", "STATE": "VT", "ZIP": "05262", "Lon": -73.20822423, "Lat": 42.94480615, "GRTYPE": "Elementary", "Sector": "Public", "schData_avgconc": null, "schData_geom": null }, "geometry": { "type": "Point", "coordinates": [ -73.208224234384375, 42.944805788297927 ] } },
{ "type": "Feature", "properties": { "OBJECTID": 212, "ORGID": "PS263", "ORGANIZATI": "Sharon Elementary School", "ADDRESS": "75 Route 132", "CITY": "Sharon", "STATE": "VT", "ZIP": "05065", "Lon": -72.45618245, "Lat": 43.78492652, "GRTYPE": "Elementary", "Sector": "Public", "schData_avgconc": null, "schData_geom": null }, "geometry": { "type": "Point", "coordinates": [ -72.45618142060458, 43.784924672385884 ] } },
{ "type": "Feature", "properties": { "OBJECTID": 213, "ORGID": "PS264", "ORGANIZATI": "Shelburne Community School", "ADDRESS": "345 Harbor Road", "CITY": "Shelburne", "STATE": "VT", "ZIP": "05482", "Lon": -73.23478552, "Lat": 44.38042673, "GRTYPE": "Elementary", "Sector": "Public", "schData_avgconc": null, "schData_geom": null }, "geometry": { "type": "Point", "coordinates": [ -73.234785589427645, 44.380424317559161 ] } },
{ "type": "Feature", "properties": { "OBJECTID": 214, "ORGID": "PS266", "ORGANIZATI": "Sheldon Elementary School", "ADDRESS": "78 Poor Farm Road", "CITY": "Sheldon", "STATE": "VT", "ZIP": "05483", "Lon": -72.96947452000001, "Lat": 44.90066942, "GRTYPE": "Elementary", "Sector": "Public", "schData_avgconc": "18.7837837837837838", "schData_geom": "01010000205991010080D30C5C23411C4120579CC82D491041" }, "geometry": { "type": "Point", "coordinates": [ -72.969474808105645, 44.900667236004594 ] } },
{ "type": "Feature", "properties": { "OBJECTID": 215, "ORGID": "PS268", "ORGANIZATI": "Shoreham Elementary School", "ADDRESS": "130 School Road", "CITY": "Shoreham", "STATE": "VT", "ZIP": "05770", "Lon": -73.3163309, "Lat": 43.89185059, "GRTYPE": "Elementary", "Sector": "Public", "schData_avgconc": null, "schData_geom": null }, "geometry": { "type": "Point", "coordinates": [ -73.316329503793142, 43.891848410636037 ] } },
{ "type": "Feature", "properties": { "OBJECTID": 216, "ORGID": "PS269", "ORGANIZATI": "Shrewsbury Mountain School", "ADDRESS": "300 Mountain School Road", "CITY": "Cuttingsville", "STATE": "VT", "ZIP": "05738", "Lon": -72.83046913, "Lat": 43.52550989, "GRTYPE": "Elementary", "Sector": "Public", "schData_avgconc": null, "schData_geom": null }, "geometry": { "type": "Point", "coordinates": [ -72.830468645796245, 43.525508489009965 ] } },
{ "type": "Feature", "properties": { "OBJECTID": 217, "ORGID": "PS270", "ORGANIZATI": "Smilie Memorial School", "ADDRESS": "2712 Theodore Roosevelt Hwy", "CITY": "Bolton", "STATE": "VT", "ZIP": "05676", "Lon": -72.87686154, "Lat": 44.37393169, "GRTYPE": "Elementary", "Sector": "Public", "schData_avgconc": null, "schData_geom": null }, "geometry": { "type": "Point", "coordinates": [ -72.876860728678636, 44.373930053860086 ] } },
{ "type": "Feature", "properties": { "OBJECTID": 218, "ORGID": "PS272", "ORGANIZATI": "So Burlington High School", "ADDRESS": "550 Dorset Street", "CITY": "So Burlington", "STATE": "VT", "ZIP": "05403-6296", "Lon": -73.17789102, "Lat": 44.45492358, "GRTYPE": "Secondary", "Sector": "Public", "schData_avgconc": null, "schData_geom": null }, "geometry": { "type": "Point", "coordinates": [ -73.177891096392273, 44.454921333530166 ] } },
{ "type": "Feature", "properties": { "OBJECTID": 219, "ORGID": "PS274", "ORGANIZATI": "So Royalton Elem/High School", "ADDRESS": "223 South Windsor St", "CITY": "South Royalton", "STATE": "VT", "ZIP": "05068", "Lon": -72.51740326, "Lat": 43.81931609, "GRTYPE": "K-12", "Sector": "Public", "schData_avgconc": null, "schData_geom": null }, "geometry": { "type": "Point", "coordinates": [ -72.517402325931087, 43.819314314538282 ] } },
{ "type": "Feature", "properties": { "OBJECTID": 220, "ORGID": "PS276", "ORGANIZATI": "Spaulding UHS #41", "ADDRESS": "155 Ayers Street", "CITY": "Barre", "STATE": "VT", "ZIP": "05641", "Lon": -72.49363648000001, "Lat": 44.18926735, "GRTYPE": "Secondary", "Sector": "Public", "schData_avgconc": null, "schData_geom": null }, "geometry": { "type": "Point", "coordinates": [ -72.493636025826135, 44.189265818716812 ] } },
{ "type": "Feature", "properties": { "OBJECTID": 221, "ORGID": "PS278", "ORGANIZATI": "Springfield High School", "ADDRESS": "303 South Street", "CITY": "Springfield", "STATE": "VT", "ZIP": "05156", "Lon": -72.47825934, "Lat": 43.2816051, "GRTYPE": "Secondary", "Sector": "Public", "schData_avgconc": null, "schData_geom": null }, "geometry": { "type": "Point", "coordinates": [ -72.478259432985737, 43.281603576650049 ] } },
{ "type": "Feature", "properties": { "OBJECTID": 222, "ORGID": "PS288", "ORGANIZATI": "St Albans City School", "ADDRESS": "29 Bellows Street", "CITY": "St Albans", "STATE": "VT", "ZIP": "05478", "Lon": -73.09149383, "Lat": 44.82035871, "GRTYPE": "Elementary", "Sector": "Public", "schData_avgconc": "11.0709677419354839", "schData_geom": "010100002059910100F02A3AFC8AA91B4140EC04286F7D0F41" }, "geometry": { "type": "Point", "coordinates": [ -73.091494047668235, 44.820355752611647 ] } },
{ "type": "Feature", "properties": { "OBJECTID": 223, "ORGID": "PS289", "ORGANIZATI": "St Albans Town Educ Center", "ADDRESS": "169 South Main Street", "CITY": "St Albans", "STATE": "VT", "ZIP": "05478-1898", "Lon": -73.08597531, "Lat": 44.80152232, "GRTYPE": "Elementary", "Sector": "Public", "schData_avgconc": "7.3000000000000000", "schData_geom": "0101000020599101007002AA7820B01B410031CF70EC3B0F41" }, "geometry": { "type": "Point", "coordinates": [ -73.085975486253389, 44.801519326634612 ] } },
{ "type": "Feature", "properties": { "OBJECTID": 224, "ORGID": "PA004", "ORGANIZATI": "St Johnsbury Academy", "ADDRESS": "1000 Main Street", "CITY": "St Johnsbury", "STATE": "VT", "ZIP": "05819", "Lon": -72.01933116, "Lat": 44.41656569, "GRTYPE": "Charter", "Sector": "Public", "schData_avgconc": null, "schData_geom": null }, "geometry": { "type": "Point", "coordinates": [ -72.019332135955423, 44.416563342775085 ] } },
{ "type": "Feature", "properties": { "OBJECTID": 225, "ORGID": "PS400", "ORGANIZATI": "St Johnsbury Schools", "ADDRESS": "257 Western Avenue Suite 2", "CITY": "St Johnsbury", "STATE": "VT", "ZIP": "05819", "Lon": -72.02485079, "Lat": 44.41650764, "GRTYPE": "Elementary", "Sector": "Public", "schData_avgconc": null, "schData_geom": null }, "geometry": { "type": "Point", "coordinates": [ -72.024851743829231, 44.416505302257377 ] } },
{ "type": "Feature", "properties": { "OBJECTID": 226, "ORGID": "PS284", "ORGANIZATI": "Stamford Elementary School", "ADDRESS": "986 Main Road", "CITY": "Stamford", "STATE": "VT", "ZIP": "05352", "Lon": -73.06741108, "Lat": 42.75482527, "GRTYPE": "Elementary", "Sector": "Public", "schData_avgconc": null, "schData_geom": null }, "geometry": { "type": "Point", "coordinates": [ -73.067410958252324, 42.754824972428793 ] } },
{ "type": "Feature", "properties": { "OBJECTID": 227, "ORGID": "PS285", "ORGANIZATI": "Stockbridge Central School", "ADDRESS": "2933 Vt Route 107", "CITY": "Stockbridge", "STATE": "VT", "ZIP": "05772", "Lon": -72.71792992, "Lat": 43.76408563, "GRTYPE": "Elementary", "Sector": "Public", "schData_avgconc": null, "schData_geom": null }, "geometry": { "type": "Point", "coordinates": [ -72.717929160703306, 43.764083990404124 ] } },
{ "type": "Feature", "properties": { "OBJECTID": 228, "ORGID": "PS286", "ORGANIZATI": "Stowe Elementary School", "ADDRESS": "254 Park Street", "CITY": "Stowe", "STATE": "VT", "ZIP": "05672", "Lon": -72.68446118, "Lat": 44.4629195, "GRTYPE": "Elementary", "Sector": "Public", "schData_avgconc": null, "schData_geom": null }, "geometry": { "type": "Point", "coordinates": [ -72.684460353534149, 44.462918090096686 ] } },