{
"type": "FeatureCollection",
"name": "avgConcSch",
"crs": { "type": "name", "properties": { "name": "urn:ogc:def:crs:OGC:1.3:CRS84" } },
"features": [
{ "type": "Feature", "properties": { "uid": 1, "OBJECTID": 2, "ORGID": "PS022", "ORGANIZATI": "Barton Graded School", "ADDRESS": "137 Church Street", "CITY": "Barton", "STATE": "VT", "ZIP": "05822", "Lon": -72.17973713000001, "Lat": 44.74882244, "GRTYPE": "Elementary", "Sector": "Public", "avg_conc": 3.581818181818182 }, "geometry": { "type": "Point", "coordinates": [ -72.179737336544648, 44.74882091242015 ] } },
{ "type": "Feature", "properties": { "uid": 3, "OBJECTID": 4, "ORGID": "PS024", "ORGANIZATI": "Bellows Falls Middle School", "ADDRESS": "15 School Street", "CITY": "Bellows Falls", "STATE": "VT", "ZIP": "05101", "Lon": -72.44629248, "Lat": 43.13335728, "GRTYPE": "Middle", "Sector": "Public", "avg_conc": 57.0 }, "geometry": { "type": "Point", "coordinates": [ -72.44629254020991, 43.133355860903819 ] } },
{ "type": "Feature", "properties": { "uid": 4, "OBJECTID": 5, "ORGID": "PS025", "ORGANIZATI": "Bellows Falls UHS #27", "ADDRESS": "406 High School Road", "CITY": "Bellows Falls", "STATE": "VT", "ZIP": "05101", "Lon": -72.44294739, "Lat": 43.11868286, "GRTYPE": "Secondary", "Sector": "Public", "avg_conc": 150.47470059944445 }, "geometry": { "type": "Point", "coordinates": [ -72.442947431583562, 43.11868144982256 ] } },
{ "type": "Feature", "properties": { "uid": 9, "OBJECTID": 10, "ORGID": "PS032", "ORGANIZATI": "Berkshire Elementary School", "ADDRESS": "4850 Water Tower Road", "CITY": "Richford", "STATE": "VT", "ZIP": "05476", "Lon": -72.76634216, "Lat": 44.97245407, "GRTYPE": "Elementary", "Sector": "Public", "avg_conc": 27.09 }, "geometry": { "type": "Point", "coordinates": [ -72.766343013002228, 44.97245169614871 ] } },
{ "type": "Feature", "properties": { "uid": 20, "OBJECTID": 21, "ORGID": "PS043", "ORGANIZATI": "Bridport Central School", "ADDRESS": "3442 Vt Rt 22A", "CITY": "Bridport", "STATE": "VT", "ZIP": "05734", "Lon": -73.31579743, "Lat": 43.98100966, "GRTYPE": "Elementary", "Sector": "Public", "avg_conc": 6.2 }, "geometry": { "type": "Point", "coordinates": [ -73.315795950852191, 43.981007212638147 ] } },
{ "type": "Feature", "properties": { "uid": 21, "OBJECTID": 22, "ORGID": "PS044", "ORGANIZATI": "Brighton Elementary School", "ADDRESS": "825 Railroad St", "CITY": "Island Pond", "STATE": "VT", "ZIP": "05846", "Lon": -71.89398785, "Lat": 44.82149697, "GRTYPE": "Elementary", "Sector": "Public", "avg_conc": 49.991780173684212 }, "geometry": { "type": "Point", "coordinates": [ -71.89398863606786, 44.821495265012246 ] } },
{ "type": "Feature", "properties": { "uid": 24, "OBJECTID": 25, "ORGID": "PS049", "ORGANIZATI": "Brownington Central School", "ADDRESS": "103 Chase Road", "CITY": "Brownington", "STATE": "VT", "ZIP": "05860-9765", "Lon": -72.13770493, "Lat": 44.81982105, "GRTYPE": "Elementary", "Sector": "Public", "avg_conc": 9.7 }, "geometry": { "type": "Point", "coordinates": [ -72.137705228851388, 44.819819374779762 ] } },
{ "type": "Feature", "properties": { "uid": 29, "OBJECTID": 30, "ORGID": "PS080", "ORGANIZATI": "C P Smith School", "ADDRESS": "332 Ethan Allen Parkway", "CITY": "Burlington", "STATE": "VT", "ZIP": "05401", "Lon": -73.2430351, "Lat": 44.51310192, "GRTYPE": "Elementary", "Sector": "Public", "avg_conc": 8.176541456000001 }, "geometry": { "type": "Point", "coordinates": [ -73.243035647525943, 44.513099303847348 ] } },
{ "type": "Feature", "properties": { "uid": 30, "OBJECTID": 31, "ORGID": "PS055", "ORGANIZATI": "Cabot School", "ADDRESS": "25 Common Road", "CITY": "Cabot", "STATE": "VT", "ZIP": "05647", "Lon": -72.30952454, "Lat": 44.40345383, "GRTYPE": "K-12", "Sector": "Public", "avg_conc": 38.921304476400003 }, "geometry": { "type": "Point", "coordinates": [ -72.309524529505481, 44.403452081392437 ] } },
{ "type": "Feature", "properties": { "uid": 33, "OBJECTID": 34, "ORGID": "PS058", "ORGANIZATI": "Camels Hump Middle School", "ADDRESS": "173 School Street", "CITY": "Richmond", "STATE": "VT", "ZIP": "05477", "Lon": -72.99423653, "Lat": 44.41354069, "GRTYPE": "Middle", "Sector": "Public", "avg_conc": 29.904166666666665 }, "geometry": { "type": "Point", "coordinates": [ -72.994235836388185, 44.413538972677287 ] } },
{ "type": "Feature", "properties": { "uid": 34, "OBJECTID": 35, "ORGID": "PS059", "ORGANIZATI": "Canaan Schools", "ADDRESS": "99 School Street", "CITY": "Canaan", "STATE": "VT", "ZIP": "05903", "Lon": -71.5377002, "Lat": 44.99538238, "GRTYPE": "K-12", "Sector": "Public", "avg_conc": 10.568965517241379 }, "geometry": { "type": "Point", "coordinates": [ -71.537701242589605, 44.995380905312295 ] } },
{ "type": "Feature", "properties": { "uid": 38, "OBJECTID": 39, "ORGID": "PS065", "ORGANIZATI": "Champlain Elementary School", "ADDRESS": "800 Pine Street", "CITY": "Burlington", "STATE": "VT", "ZIP": "05401", "Lon": -73.21322112, "Lat": 44.45706494, "GRTYPE": "Elementary", "Sector": "Public", "avg_conc": 18.410638297872339 }, "geometry": { "type": "Point", "coordinates": [ -73.213221350035838, 44.457062572421542 ] } },
{ "type": "Feature", "properties": { "uid": 40, "OBJECTID": 41, "ORGID": "PS067", "ORGANIZATI": "Charleston Elem School", "ADDRESS": "255 Center School Road", "CITY": "West Charleston", "STATE": "VT", "ZIP": "05872", "Lon": -72.01956079, "Lat": 44.84304635, "GRTYPE": "Elementary", "Sector": "Public", "avg_conc": 24.983333333333334 }, "geometry": { "type": "Point", "coordinates": [ -72.019561280257335, 44.843044569525496 ] } },
{ "type": "Feature", "properties": { "uid": 41, "OBJECTID": 42, "ORGID": "PS068", "ORGANIZATI": "Charlotte Central School", "ADDRESS": "408 Hinesburg Road", "CITY": "Charlotte", "STATE": "VT", "ZIP": "05445", "Lon": -73.22626046000001, "Lat": 44.31518793, "GRTYPE": "Elementary", "Sector": "Public", "avg_conc": 23.8638871691 }, "geometry": { "type": "Point", "coordinates": [ -73.226260283409744, 44.315185557115214 ] } },
{ "type": "Feature", "properties": { "uid": 44, "OBJECTID": 45, "ORGID": "PS071", "ORGANIZATI": "Clarendon Elementary School", "ADDRESS": "84 Grange Hall Rd", "CITY": "North Clarendon", "STATE": "VT", "ZIP": "05759", "Lon": -72.96786504000001, "Lat": 43.56332558, "GRTYPE": "Elementary", "Sector": "Public", "avg_conc": 64.384615384615387 }, "geometry": { "type": "Point", "coordinates": [ -72.967864569859017, 43.563324163776741 ] } },
{ "type": "Feature", "properties": { "uid": 52, "OBJECTID": 53, "ORGID": "PS082", "ORGANIZATI": "Danville School", "ADDRESS": "148 Peacham Road", "CITY": "Danville", "STATE": "VT", "ZIP": "05828", "Lon": -72.14350128, "Lat": 44.41082764, "GRTYPE": "K-12", "Sector": "Public", "avg_conc": 10.873141500531915 }, "geometry": { "type": "Point", "coordinates": [ -72.143501744975623, 44.410825562664016 ] } },
{ "type": "Feature", "properties": { "uid": 54, "OBJECTID": 55, "ORGID": "PS084", "ORGANIZATI": "Derby Elementary School", "ADDRESS": "907 Elm Street", "CITY": "Derby Line", "STATE": "VT", "ZIP": "05830", "Lon": -72.11834471, "Lat": 45.00150282, "GRTYPE": "Elementary", "Sector": "Public", "avg_conc": 13.5 }, "geometry": { "type": "Point", "coordinates": [ -72.118344848659177, 45.001500870363671 ] } },
{ "type": "Feature", "properties": { "uid": 58, "OBJECTID": 59, "ORGID": "PS086", "ORGANIZATI": "Dover Elementary School", "ADDRESS": "9 Schoolhouse Road", "CITY": "East Dover", "STATE": "VT", "ZIP": "05341", "Lon": -72.80991018, "Lat": 42.93886302, "GRTYPE": "Elementary", "Sector": "Public", "avg_conc": 31.04 }, "geometry": { "type": "Point", "coordinates": [ -72.809910664187527, 42.938862371037558 ] } },
{ "type": "Feature", "properties": { "uid": 59, "OBJECTID": 60, "ORGID": "PS087", "ORGANIZATI": "Dummerston Schools", "ADDRESS": "52 Schoolhouse Road", "CITY": "East Dummerston", "STATE": "VT", "ZIP": "05346", "Lon": -72.53791936, "Lat": 42.93366824, "GRTYPE": "Elementary", "Sector": "Public", "avg_conc": 40.490625 }, "geometry": { "type": "Point", "coordinates": [ -72.537919621443891, 42.933667492218326 ] } },
{ "type": "Feature", "properties": { "uid": 73, "OBJECTID": 74, "ORGID": "PS105", "ORGANIZATI": "Fairfield Center School", "ADDRESS": "57 Park Street", "CITY": "Fairfield", "STATE": "VT", "ZIP": "05455", "Lon": -72.94792175000001, "Lat": 44.80051041, "GRTYPE": "Elementary", "Sector": "Public", "avg_conc": 7.5083333333333329 }, "geometry": { "type": "Point", "coordinates": [ -72.947921556294858, 44.800508300138027 ] } },
{ "type": "Feature", "properties": { "uid": 76, "OBJECTID": 77, "ORGID": "PS109", "ORGANIZATI": "Fisher School", "ADDRESS": "504 East Arlington Rd", "CITY": "Arlington", "STATE": "VT", "ZIP": "05250", "Lon": -73.15365909, "Lat": 43.06616937, "GRTYPE": "Elementary", "Sector": "Public", "avg_conc": 2.9 }, "geometry": { "type": "Point", "coordinates": [ -73.153659197623412, 43.066168834775915 ] } },
{ "type": "Feature", "properties": { "uid": 86, "OBJECTID": 87, "ORGID": "PS124", "ORGANIZATI": "Green Mountain UHS #35", "ADDRESS": "716 Vt Rte 103 South", "CITY": "Chester", "STATE": "VT", "ZIP": "05143", "Lon": -72.58145904, "Lat": 43.25361252, "GRTYPE": "Secondary", "Sector": "Public", "avg_conc": 294.71399985714288 }, "geometry": { "type": "Point", "coordinates": [ -72.581459320072241, 43.25361113587384 ] } },
{ "type": "Feature", "properties": { "uid": 91, "OBJECTID": 92, "ORGID": "PS131", "ORGANIZATI": "Hardwick Elementary School", "ADDRESS": "135 South Main Street", "CITY": "Hardwick", "STATE": "VT", "ZIP": "05843", "Lon": -72.3681882, "Lat": 44.50334171, "GRTYPE": "Elementary", "Sector": "Public", "avg_conc": 26.166666666666668 }, "geometry": { "type": "Point", "coordinates": [ -72.368188331151003, 44.50334010535888 ] } },
{ "type": "Feature", "properties": { "uid": 93, "OBJECTID": 94, "ORGID": "PS135", "ORGANIZATI": "Hartford Mem Middle School", "ADDRESS": "245 Highland Avenue", "CITY": "White River Jct", "STATE": "VT", "ZIP": "05001", "Lon": -72.31993866000001, "Lat": 43.65635681, "GRTYPE": "Middle", "Sector": "Public", "avg_conc": 4.9153846153846157 }, "geometry": { "type": "Point", "coordinates": [ -72.319937720211811, 43.656354939730484 ] } },
{ "type": "Feature", "properties": { "uid": 102, "OBJECTID": 103, "ORGID": "PS145", "ORGANIZATI": "Hyde Park Elementary School", "ADDRESS": "50 East Main Street", "CITY": "Hyde Park", "STATE": "VT", "ZIP": "05655", "Lon": -72.61359165, "Lat": 44.59207232, "GRTYPE": "Elementary", "Sector": "Public", "avg_conc": 35.375 }, "geometry": { "type": "Point", "coordinates": [ -72.613591148512086, 44.592070835976514 ] } },
{ "type": "Feature", "properties": { "uid": 103, "OBJECTID": 104, "ORGID": "PS337", "ORGANIZATI": "Integrated Arts Acad At Ho Wheeler", "ADDRESS": "6 Archibald Street", "CITY": "Burlington", "STATE": "VT", "ZIP": "05401", "Lon": -73.21390296, "Lat": 44.48799308, "GRTYPE": "Elementary", "Sector": "Public", "avg_conc": 40.0 }, "geometry": { "type": "Point", "coordinates": [ -73.213903295326418, 44.487990711015904 ] } },
{ "type": "Feature", "properties": { "uid": 107, "OBJECTID": 108, "ORGID": "PS155", "ORGANIZATI": "J J Flynn School", "ADDRESS": "1645 North Avenue", "CITY": "Burlington", "STATE": "VT", "ZIP": "05401", "Lon": -73.26000212, "Lat": 44.51702307, "GRTYPE": "Elementary", "Sector": "Public", "avg_conc": 4.2786974461818179 }, "geometry": { "type": "Point", "coordinates": [ -73.260002668518126, 44.51702043243251 ] } },
{ "type": "Feature", "properties": { "uid": 108, "OBJECTID": 109, "ORGID": "PS149", "ORGANIZATI": "Jamaica Village School", "ADDRESS": "347 Depot St", "CITY": "Jamaica", "STATE": "VT", "ZIP": "05343", "Lon": -72.77502243000001, "Lat": 43.10406588, "GRTYPE": "Elementary", "Sector": "Public", "avg_conc": 9.3 }, "geometry": { "type": "Point", "coordinates": [ -72.775022840663979, 43.104064931584553 ] } },
{ "type": "Feature", "properties": { "uid": 122, "OBJECTID": 123, "ORGID": "PS167", "ORGANIZATI": "Ludlow Elementary School", "ADDRESS": "45 Main Street", "CITY": "Ludlow", "STATE": "VT", "ZIP": "05149", "Lon": -72.68855214, "Lat": 43.39705962, "GRTYPE": "Elementary", "Sector": "Public", "avg_conc": 6.9956521739130437 }, "geometry": { "type": "Point", "coordinates": [ -72.688551899208591, 43.397058252389371 ] } },
{ "type": "Feature", "properties": { "uid": 126, "OBJECTID": 127, "ORGID": "PS173", "ORGANIZATI": "Main Street Middle School", "ADDRESS": "170 Main Street", "CITY": "Montpelier", "STATE": "VT", "ZIP": "05602", "Lon": -72.56966316, "Lat": 44.26297202, "GRTYPE": "Middle", "Sector": "Public", "avg_conc": 6.9 }, "geometry": { "type": "Point", "coordinates": [ -72.569662751678877, 44.262970534278303 ] } },
{ "type": "Feature", "properties": { "uid": 132, "OBJECTID": 133, "ORGID": "PS177", "ORGANIZATI": "Marlboro Elementary School", "ADDRESS": "2669 Rte 9", "CITY": "Marlboro", "STATE": "VT", "ZIP": "05344", "Lon": -72.71968842, "Lat": 42.86869812, "GRTYPE": "Elementary", "Sector": "Public", "avg_conc": 67.529411764705884 }, "geometry": { "type": "Point", "coordinates": [ -72.719688871371261, 42.868697608937595 ] } },
{ "type": "Feature", "properties": { "uid": 136, "OBJECTID": 137, "ORGID": "PS180", "ORGANIZATI": "Middlebury Union High School", "ADDRESS": "73 Charles Avenue", "CITY": "Middlebury", "STATE": "VT", "ZIP": "05753", "Lon": -73.16313653, "Lat": 44.00669412, "GRTYPE": "Secondary", "Sector": "Public", "avg_conc": 19.827272727272728 }, "geometry": { "type": "Point", "coordinates": [ -73.163134982531645, 44.006691873827521 ] } },
{ "type": "Feature", "properties": { "uid": 142, "OBJECTID": 143, "ORGID": "PS186", "ORGANIZATI": "Milton High School", "ADDRESS": "17 Rebecca Lander Drive", "CITY": "Milton", "STATE": "VT", "ZIP": "05468", "Lon": -73.11892499, "Lat": 44.62910158, "GRTYPE": "Secondary", "Sector": "Public", "avg_conc": 17.07162162162162 }, "geometry": { "type": "Point", "coordinates": [ -73.118925085127657, 44.629098712357468 ] } },
{ "type": "Feature", "properties": { "uid": 160, "OBJECTID": 161, "ORGID": "PS204", "ORGANIZATI": "Newport City Elem Schools", "ADDRESS": "166 Sias Avenue", "CITY": "Newport", "STATE": "VT", "ZIP": "05855", "Lon": -72.19173288, "Lat": 44.94494763, "GRTYPE": "Elementary", "Sector": "Public", "avg_conc": 11.4875 }, "geometry": { "type": "Point", "coordinates": [ -72.19173308284671, 44.94494577649764 ] } },
{ "type": "Feature", "properties": { "uid": 165, "OBJECTID": 166, "ORGID": "PS209", "ORGANIZATI": "North Hero School", "ADDRESS": "6441 Us Route 2", "CITY": "North Hero", "STATE": "VT", "ZIP": "05474", "Lon": -73.26338959, "Lat": 44.85087585, "GRTYPE": "Elementary", "Sector": "Public", "avg_conc": 2.2028561573333332 }, "geometry": { "type": "Point", "coordinates": [ -73.263390198682046, 44.850872029423577 ] } },
{ "type": "Feature", "properties": { "uid": 170, "OBJECTID": 171, "ORGID": "PS383", "ORGANIZATI": "Oak Grove School", "ADDRESS": "15 Moreland Avenue", "CITY": "Brattleboro", "STATE": "VT", "ZIP": "05301", "Lon": -72.55802, "Lat": 42.84008, "GRTYPE": "Elementary", "Sector": "Public", "avg_conc": 30.469479287272726 }, "geometry": { "type": "Point", "coordinates": [ -72.558019918358852, 42.840079725506087 ] } },
{ "type": "Feature", "properties": { "uid": 183, "OBJECTID": 184, "ORGID": "PS229", "ORGANIZATI": "Poultney Elementary School", "ADDRESS": "96 School Circle", "CITY": "Poultney", "STATE": "VT", "ZIP": "05764", "Lon": -73.23767405, "Lat": 43.52457588, "GRTYPE": "Elementary", "Sector": "Public", "avg_conc": 52.734375 }, "geometry": { "type": "Point", "coordinates": [ -73.237673210233453, 43.524574688758449 ] } },
{ "type": "Feature", "properties": { "uid": 184, "OBJECTID": 185, "ORGID": "PS230", "ORGANIZATI": "Poultney High School", "ADDRESS": "154 East Main Street", "CITY": "Poultney", "STATE": "VT", "ZIP": "05764", "Lon": -73.22996031, "Lat": 43.51656124, "GRTYPE": "Secondary", "Sector": "Public", "avg_conc": 33.0741935483871 }, "geometry": { "type": "Point", "coordinates": [ -73.229959501875285, 43.516560062971884 ] } },
{ "type": "Feature", "properties": { "uid": 186, "OBJECTID": 187, "ORGID": "PS232", "ORGANIZATI": "Proctor Elementary School", "ADDRESS": "14 School Street", "CITY": "Proctor", "STATE": "VT", "ZIP": "05765", "Lon": -73.0386204, "Lat": 43.6618934, "GRTYPE": "Elementary", "Sector": "Public", "avg_conc": 13.922222222222222 }, "geometry": { "type": "Point", "coordinates": [ -73.038619632800746, 43.661891823736291 ] } },
{ "type": "Feature", "properties": { "uid": 188, "OBJECTID": 189, "ORGID": "PS234", "ORGANIZATI": "Putney Central School", "ADDRESS": "182 Westminster Road", "CITY": "Putney", "STATE": "VT", "ZIP": "05346", "Lon": -72.52823462000001, "Lat": 42.98622134, "GRTYPE": "Elementary", "Sector": "Public", "avg_conc": 4.9545454545454541 }, "geometry": { "type": "Point", "coordinates": [ -72.528235100053138, 42.986220297266733 ] } },
{ "type": "Feature", "properties": { "uid": 193, "OBJECTID": 194, "ORGID": "PS241", "ORGANIZATI": "Richford Elementary School", "ADDRESS": "1 Elementary School Road", "CITY": "Richford", "STATE": "VT", "ZIP": "05476", "Lon": -72.67855535, "Lat": 44.98357582, "GRTYPE": "Elementary", "Sector": "Public", "avg_conc": 5.9333333333333336 }, "geometry": { "type": "Point", "coordinates": [ -72.678556231636179, 44.983573547034233 ] } },
{ "type": "Feature", "properties": { "uid": 196, "OBJECTID": 197, "ORGID": "PS271", "ORGANIZATI": "Rick Marcotte Central School", "ADDRESS": "10 Market Street", "CITY": "So Burlington", "STATE": "VT", "ZIP": "05403-5779", "Lon": -73.17689054, "Lat": 44.46729807, "GRTYPE": "Elementary", "Sector": "Public", "avg_conc": 5.6 }, "geometry": { "type": "Point", "coordinates": [ -73.176890636551903, 44.467295828310668 ] } },
{ "type": "Feature", "properties": { "uid": 198, "OBJECTID": 199, "ORGID": "PS245", "ORGANIZATI": "Riverside Middle School", "ADDRESS": "13 Fairground Road", "CITY": "Springfield", "STATE": "VT", "ZIP": "05156", "Lon": -72.49685669, "Lat": 43.30411148, "GRTYPE": "Middle", "Sector": "Public", "avg_conc": 7.324 }, "geometry": { "type": "Point", "coordinates": [ -72.496856779433344, 43.304109971442806 ] } },
{ "type": "Feature", "properties": { "uid": 200, "OBJECTID": 201, "ORGID": "PS247", "ORGANIZATI": "Rochester School", "ADDRESS": "222 South Main Street", "CITY": "Rochester", "STATE": "VT", "ZIP": "05767-9679", "Lon": -72.80950554, "Lat": 43.87193558, "GRTYPE": "K-12", "Sector": "Public", "avg_conc": 4.62 }, "geometry": { "type": "Point", "coordinates": [ -72.809504515751513, 43.871933981344228 ] } },
{ "type": "Feature", "properties": { "uid": 206, "OBJECTID": 207, "ORGID": "PS258", "ORGANIZATI": "Rutland Town Elem School", "ADDRESS": "1612 Post Road", "CITY": "Rutland Town", "STATE": "VT", "ZIP": "05701", "Lon": -72.96331578, "Lat": 43.63856421, "GRTYPE": "Elementary", "Sector": "Public", "avg_conc": 60.63703703703704 }, "geometry": { "type": "Point", "coordinates": [ -72.963315121989353, 43.638562681058367 ] } },
{ "type": "Feature", "properties": { "uid": 213, "OBJECTID": 214, "ORGID": "PS266", "ORGANIZATI": "Sheldon Elementary School", "ADDRESS": "78 Poor Farm Road", "CITY": "Sheldon", "STATE": "VT", "ZIP": "05483", "Lon": -72.96947452000001, "Lat": 44.90066942, "GRTYPE": "Elementary", "Sector": "Public", "avg_conc": 18.783783783783782 }, "geometry": { "type": "Point", "coordinates": [ -72.969474808105645, 44.900667236004594 ] } },
{ "type": "Feature", "properties": { "uid": 221, "OBJECTID": 222, "ORGID": "PS288", "ORGANIZATI": "St Albans City School", "ADDRESS": "29 Bellows Street", "CITY": "St Albans", "STATE": "VT", "ZIP": "05478", "Lon": -73.09149383, "Lat": 44.82035871, "GRTYPE": "Elementary", "Sector": "Public", "avg_conc": 11.070967741935483 }, "geometry": { "type": "Point", "coordinates": [ -73.091494047668235, 44.820355752611647 ] } },
{ "type": "Feature", "properties": { "uid": 222, "OBJECTID": 223, "ORGID": "PS289", "ORGANIZATI": "St Albans Town Educ Center", "ADDRESS": "169 South Main Street", "CITY": "St Albans", "STATE": "VT", "ZIP": "05478-1898", "Lon": -73.08597531, "Lat": 44.80152232, "GRTYPE": "Elementary", "Sector": "Public", "avg_conc": 7.3260869565217392 }, "geometry": { "type": "Point", "coordinates": [ -73.085975486253389, 44.801519326634612 ] } },
{ "type": "Feature", "properties": { "uid": 245, "OBJECTID": 246, "ORGID": "PS304", "ORGANIZATI": "Twinfield US #33", "ADDRESS": "106 Nasmith Brook Road", "CITY": "Plainfield", "STATE": "VT", "ZIP": "05667", "Lon": -72.39502663, "Lat": 44.29795714, "GRTYPE": "K-12", "Sector": "Public", "avg_conc": 75.799744737833336 }, "geometry": { "type": "Point", "coordinates": [ -72.395026389699282, 44.297955504591002 ] } },
{ "type": "Feature", "properties": { "uid": 249, "OBJECTID": 250, "ORGID": "PS308", "ORGANIZATI": "Union Elementary School", "ADDRESS": "1 Park Avenue", "CITY": "Montpelier", "STATE": "VT", "ZIP": "05602", "Lon": -72.57106624, "Lat": 44.25975321, "GRTYPE": "Elementary", "Sector": "Public", "avg_conc": 3.459090909090909 }, "geometry": { "type": "Point", "coordinates": [ -72.571065824362648, 44.259751722694865 ] } },
{ "type": "Feature", "properties": { "uid": 251, "OBJECTID": 252, "ORGID": "PS280", "ORGANIZATI": "Union Street School", "ADDRESS": "43 Union Street", "CITY": "Springfield", "STATE": "VT", "ZIP": "05156", "Lon": -72.48789072, "Lat": 43.2952575, "GRTYPE": "Elementary", "Sector": "Public", "avg_conc": 17.0 }, "geometry": { "type": "Point", "coordinates": [ -72.487890802273881, 43.295255980071211 ] } },
{ "type": "Feature", "properties": { "uid": 254, "OBJECTID": 255, "ORGID": "PS313", "ORGANIZATI": "Vernon Elementary School", "ADDRESS": "381 Governor Hunt Road", "CITY": "Vernon", "STATE": "VT", "ZIP": "05354", "Lon": -72.51856495, "Lat": 42.77626312, "GRTYPE": "Elementary", "Sector": "Public", "avg_conc": 15.263157894736842 }, "geometry": { "type": "Point", "coordinates": [ -72.518564442416903, 42.776263235296327 ] } },
{ "type": "Feature", "properties": { "uid": 258, "OBJECTID": 259, "ORGID": "PS317", "ORGANIZATI": "Wallingford Village School", "ADDRESS": "126 School Street", "CITY": "Wallingford", "STATE": "VT", "ZIP": "05773", "Lon": -72.97507197, "Lat": 43.47054732, "GRTYPE": "Elementary", "Sector": "Public", "avg_conc": 30.65 }, "geometry": { "type": "Point", "coordinates": [ -72.97507170796311, 43.470546051275875 ] } },
{ "type": "Feature", "properties": { "uid": 260, "OBJECTID": 261, "ORGID": "PS320", "ORGANIZATI": "Warren Elementary School", "ADDRESS": "273 School Road", "CITY": "Warren", "STATE": "VT", "ZIP": "05674", "Lon": -72.85272994, "Lat": 44.11642764, "GRTYPE": "Elementary", "Sector": "Public", "avg_conc": 18.9 }, "geometry": { "type": "Point", "coordinates": [ -72.852728842003629, 44.116425973693623 ] } },
{ "type": "Feature", "properties": { "uid": 262, "OBJECTID": 263, "ORGID": "PS324", "ORGANIZATI": "Waterford Elementary School", "ADDRESS": "276 Duck Pond Road", "CITY": "St Johnsbury", "STATE": "VT", "ZIP": "05819-0276", "Lon": -71.92754364, "Lat": 44.40257263, "GRTYPE": "Elementary", "Sector": "Public", "avg_conc": 8.6866666666666674 }, "geometry": { "type": "Point", "coordinates": [ -71.92754424611141, 44.402570426354075 ] } },
{ "type": "Feature", "properties": { "uid": 265, "OBJECTID": 266, "ORGID": "PS331", "ORGANIZATI": "West Rutland School", "ADDRESS": "713 Main Street", "CITY": "West Rutland", "STATE": "VT", "ZIP": "05777", "Lon": -73.05144208, "Lat": 43.59555653, "GRTYPE": "K-12", "Sector": "Public", "avg_conc": 6.1434782608695651 }, "geometry": { "type": "Point", "coordinates": [ -73.051441455301244, 43.595555078041905 ] } },
{ "type": "Feature", "properties": { "uid": 290, "OBJECTID": 291, "ORGID": null, "ORGANIZATI": "The Arlington School", "ADDRESS": "125 School Street", "CITY": "St. Johnsbury", "STATE": "V", "ZIP": "05819", "Lon": -72.01098432000001, "Lat": 44.42708136, "GRTYPE": "grades: 8-12", "Sector": "Independent", "avg_conc": 4.98 }, "geometry": { "type": "Point", "coordinates": [ -72.010985378825623, 44.427078969294882 ] } },
{ "type": "Feature", "properties": { "uid": 341, "OBJECTID": 342, "ORGID": null, "ORGANIZATI": "Pacem School", "ADDRESS": "32 College Street Suite 100", "CITY": "Montpelier", "STATE": "V", "ZIP": "05602", "Lon": -72.56753448000001, "Lat": 44.25467333, "GRTYPE": "grades: 6-12", "Sector": "Independent", "avg_conc": 31.925 }, "geometry": { "type": "Point", "coordinates": [ -72.56753407259697, 44.254671844126243 ] } },
{ "type": "Feature", "properties": { "uid": 372, "OBJECTID": 387, "ORGID": "PS001", "ORGANIZATI": "Academy School", "ADDRESS": "860 Western Avenue", "CITY": "Brattleboro", "STATE": "VT", "ZIP": "05301", "Lon": -72.59805244, "Lat": 42.85125974, "GRTYPE": "Elementary", "Sector": "Public", "avg_conc": 7.1388888888888893 }, "geometry": { "type": "Point", "coordinates": [ -72.598052523073292, 42.851259378326823 ] } }
]
}
